Vehicle Name,Location X,Location Y,Location Z,Rotation Pitch,Rotation Yaw,Rotation Roll,Timestamp,Speed,Throttle,Acceleration,Brake,Steering
"BMW_Series7_Pawn_C_0",2015.60,12114.39,-383.82,-0.52,-93.42,-0.06,"2024-12-04 18:08:58",0.00,0.00,0.00,0.00,0.00
"BMW_Series7_Pawn_C_0",2015.60,12114.39,-383.82,-0.52,-93.42,-0.06,"2024-12-04 18:08:58",0.00,0.00,0.00,0.00,0.00
"BMW_Series7_Pawn_C_0",2015.60,12114.38,-383.80,-0.51,-93.42,-0.06,"2024-12-04 18:08:58",0.00,0.00,0.00,0.00,0.00
"BMW_Series7_Pawn_C_0",2015.60,12114.38,-383.79,-0.51,-93.42,-0.06,"2024-12-04 18:08:58",0.00,0.00,0.00,0.00,0.00
"BMW_Series7_Pawn_C_0",2015.60,12114.37,-383.78,-0.51,-93.42,-0.06,"2024-12-04 18:08:58",0.00,0.00,0.00,0.00,0.00
"BMW_Series7_Pawn_C_0",2015.60,12114.37,-383.78,-0.50,-93.42,-0.06,"2024-12-04 18:08:58",0.00,0.00,0.00,0.00,0.00
"BMW_Series7_Pawn_C_0",2015.60,12114.37,-383.78,-0.50,-93.42,-0.06,"2024-12-04 18:08:58",0.00,0.00,0.00,0.00,0.00
"BMW_Series7_Pawn_C_0",2015.60,12114.37,-383.79,-0.50,-93.42,-0.06,"2024-12-04 18:08:58",0.00,0.00,0.00,0.00,0.00
"BMW_Series7_Pawn_C_0",2015.60,12114.37,-383.80,-0.50,-93.42,-0.06,"2024-12-04 18:08:58",0.00,0.00,0.00,0.00,0.00
"BMW_Series7_Pawn_C_0",2015.60,12114.31,-383.81,-0.50,-93.42,-0.06,"2024-12-04 18:08:58",0.00,0.00,0.00,0.00,0.00
"BMW_Series7_Pawn_C_0",2015.59,12114.14,-383.81,-0.49,-93.42,-0.06,"2024-12-04 18:08:58",0.00,0.00,0.00,0.00,0.00
"BMW_Series7_Pawn_C_0",2015.54,12113.31,-383.81,-0.47,-93.42,-0.06,"2024-12-04 18:08:58",0.00,0.00,0.00,0.00,0.00
"BMW_Series7_Pawn_C_0",2015.49,12112.61,-383.82,-0.45,-93.42,-0.06,"2024-12-04 18:08:58",0.00,0.00,0.00,0.00,0.00
"BMW_Series7_Pawn_C_0",2015.37,12110.48,-383.83,-0.40,-93.43,-0.06,"2024-12-04 18:08:58",0.00,0.00,0.00,0.00,0.00
"BMW_Series7_Pawn_C_0",2015.27,12108.94,-383.84,-0.37,-93.43,-0.06,"2024-12-04 18:08:58",0.00,0.00,0.00,0.00,0.00
"BMW_Series7_Pawn_C_0",2015.06,12105.37,-383.86,-0.32,-93.43,-0.06,"2024-12-04 18:08:58",0.00,0.00,0.00,0.00,0.00
"BMW_Series7_Pawn_C_0",2014.94,12103.37,-383.88,-0.30,-93.44,-0.06,"2024-12-04 18:08:58",0.00,0.00,0.00,0.00,0.00
"BMW_Series7_Pawn_C_0",2014.65,12098.63,-383.92,-0.27,-93.44,-0.06,"2024-12-04 18:08:58",0.00,0.00,0.00,0.00,0.00
"BMW_Series7_Pawn_C_0",2014.44,12095.13,-383.95,-0.26,-93.45,-0.06,"2024-12-04 18:08:58",0.00,0.00,0.00,0.00,0.00
"BMW_Series7_Pawn_C_0",2014.26,12092.10,-383.97,-0.25,-93.45,-0.06,"2024-12-04 18:08:58",0.00,0.00,0.00,0.00,0.00
"BMW_Series7_Pawn_C_0",2013.86,12085.29,-384.04,-0.25,-93.45,-0.07,"2024-12-04 18:08:58",0.00,0.00,0.00,0.00,0.00
"BMW_Series7_Pawn_C_0",2013.42,12077.83,-384.14,-0.24,-93.46,-0.09,"2024-12-04 18:08:58",0.00,0.00,0.00,0.00,0.00
"BMW_Series7_Pawn_C_0",2013.17,12073.54,-384.20,-0.24,-93.46,-0.10,"2024-12-04 18:08:58",0.00,0.00,0.00,0.00,0.00
"BMW_Series7_Pawn_C_0",2012.66,12064.71,-384.32,-0.24,-93.46,-0.13,"2024-12-04 18:08:58",0.00,0.00,0.00,0.00,0.00
"BMW_Series7_Pawn_C_0",2012.37,12059.95,-384.38,-0.25,-93.47,-0.14,"2024-12-04 18:08:58",0.00,0.00,0.00,0.00,0.00
"BMW_Series7_Pawn_C_0",2011.76,12049.69,-384.51,-0.25,-93.47,-0.16,"2024-12-04 18:08:59",0.00,0.00,0.00,0.00,0.00
"BMW_Series7_Pawn_C_0",2011.41,12043.92,-384.58,-0.25,-93.47,-0.16,"2024-12-04 18:08:59",0.00,0.00,0.00,0.00,0.00
"BMW_Series7_Pawn_C_0",2010.72,12032.44,-384.70,-0.25,-93.48,-0.16,"2024-12-04 18:08:59",0.00,0.00,0.00,0.00,0.00
"BMW_Series7_Pawn_C_0",2010.33,12026.09,-384.76,-0.25,-93.48,-0.16,"2024-12-04 18:08:59",0.00,0.00,0.00,0.00,0.00
"BMW_Series7_Pawn_C_0",2009.52,12012.80,-384.87,-0.24,-93.49,-0.16,"2024-12-04 18:08:59",0.00,0.00,0.00,0.00,0.00
"BMW_Series7_Pawn_C_0",2009.10,12005.95,-384.93,-0.24,-93.49,-0.15,"2024-12-04 18:08:59",0.00,0.00,0.00,0.00,0.00
"BMW_Series7_Pawn_C_0",2008.21,11991.45,-385.04,-0.24,-93.50,-0.14,"2024-12-04 18:08:59",0.00,0.00,0.00,0.00,0.00
"BMW_Series7_Pawn_C_0",2007.73,11983.72,-385.09,-0.24,-93.50,-0.14,"2024-12-04 18:08:59",0.00,0.00,0.00,0.00,0.00
"BMW_Series7_Pawn_C_0",2006.76,11968.02,-385.23,-0.23,-93.50,-0.12,"2024-12-04 18:08:59",0.00,0.00,0.00,0.00,0.00
"BMW_Series7_Pawn_C_0",2006.26,11960.08,-385.30,-0.22,-93.51,-0.11,"2024-12-04 18:08:59",0.00,0.00,0.00,0.00,0.00
"BMW_Series7_Pawn_C_0",2005.18,11942.24,-385.46,-0.21,-93.50,-0.09,"2024-12-04 18:08:59",0.00,0.00,0.00,0.00,0.00
"BMW_Series7_Pawn_C_0",2004.64,11932.62,-385.55,-0.21,-93.49,-0.09,"2024-12-04 18:08:59",0.00,0.00,0.00,0.00,0.00
"BMW_Series7_Pawn_C_0",2003.65,11913.99,-385.73,-0.20,-93.44,-0.09,"2024-12-04 18:08:59",0.00,0.00,0.00,0.00,0.00
"BMW_Series7_Pawn_C_0",2003.06,11903.79,-385.82,-0.20,-93.44,-0.09,"2024-12-04 18:08:59",0.00,0.00,0.00,0.00,0.00
"BMW_Series7_Pawn_C_0",2001.83,11883.07,-386.01,-0.19,-93.44,-0.09,"2024-12-04 18:08:59",0.00,0.00,0.00,0.00,0.00
"BMW_Series7_Pawn_C_0",2001.20,11872.48,-386.10,-0.19,-93.45,-0.09,"2024-12-04 18:08:59",0.00,0.00,0.00,0.00,0.00
"BMW_Series7_Pawn_C_0",2000.56,11861.75,-386.20,-0.19,-93.45,-0.08,"2024-12-04 18:08:59",0.00,0.00,0.00,0.00,0.00
"BMW_Series7_Pawn_C_0",1999.08,11837.13,-386.39,-0.18,-93.46,-0.08,"2024-12-04 18:08:59",0.00,0.00,0.00,0.00,0.00
"BMW_Series7_Pawn_C_0",1998.31,11824.34,-386.49,-0.18,-93.46,-0.08,"2024-12-04 18:08:59",0.00,0.00,0.00,0.00,0.00
"BMW_Series7_Pawn_C_0",1996.86,11800.30,-386.69,-0.18,-93.47,-0.09,"2024-12-04 18:08:59",0.00,0.00,0.00,0.00,0.00
"BMW_Series7_Pawn_C_0",1995.34,11774.97,-386.90,-0.18,-93.47,-0.09,"2024-12-04 18:08:59",0.00,0.00,0.00,0.00,0.00
"BMW_Series7_Pawn_C_0",1994.54,11761.47,-387.02,-0.18,-93.47,-0.09,"2024-12-04 18:08:59",0.00,0.00,0.00,0.00,0.00
"BMW_Series7_Pawn_C_0",1993.79,11748.03,-387.13,-0.17,-93.45,-0.10,"2024-12-04 18:08:59",0.00,0.00,0.00,0.00,0.00
"BMW_Series7_Pawn_C_0",1992.43,11720.23,-387.38,-0.16,-93.34,-0.13,"2024-12-04 18:08:59",0.00,0.00,0.00,0.00,0.00
"BMW_Series7_Pawn_C_0",1991.29,11691.93,-387.63,-0.15,-93.16,-0.16,"2024-12-04 18:08:59",0.00,0.00,0.00,0.00,0.00
"BMW_Series7_Pawn_C_0",1990.55,11676.44,-387.76,-0.15,-93.13,-0.16,"2024-12-04 18:08:59",0.00,0.00,0.00,0.00,0.00
"BMW_Series7_Pawn_C_0",1989.71,11660.19,-387.90,-0.14,-93.12,-0.15,"2024-12-04 18:08:59",0.00,0.00,0.00,0.00,0.00
"BMW_Series7_Pawn_C_0",1987.90,11626.53,-388.18,-0.12,-93.13,-0.12,"2024-12-04 18:08:59",0.00,0.00,0.00,0.00,0.00
"BMW_Series7_Pawn_C_0",1987.02,11610.44,-388.32,-0.11,-93.13,-0.10,"2024-12-04 18:08:59",0.00,0.00,0.00,0.00,0.00
"BMW_Series7_Pawn_C_0",1985.15,11576.13,-388.61,-0.09,-93.14,-0.08,"2024-12-04 18:08:59",0.00,0.00,0.00,0.00,0.00
"BMW_Series7_Pawn_C_0",1984.20,11558.14,-388.76,-0.08,-93.13,-0.07,"2024-12-04 18:09:00",0.00,0.00,0.00,0.00,0.00
"BMW_Series7_Pawn_C_0",1982.39,11520.69,-389.07,-0.07,-93.05,-0.09,"2024-12-04 18:09:00",0.00,0.00,0.00,0.00,0.00
"BMW_Series7_Pawn_C_0",1980.99,11482.88,-389.39,-0.05,-92.83,-0.14,"2024-12-04 18:09:00",0.00,0.00,0.00,0.00,0.00
"BMW_Series7_Pawn_C_0",1980.53,11463.37,-389.56,-0.04,-92.64,-0.19,"2024-12-04 18:09:00",0.00,0.00,0.00,0.00,0.00
"BMW_Series7_Pawn_C_0",1979.35,11423.13,-389.90,-0.04,-92.42,-0.23,"2024-12-04 18:09:00",0.00,0.00,0.00,0.00,0.00
"BMW_Series7_Pawn_C_0",1978.57,11402.37,-390.08,-0.03,-92.40,-0.21,"2024-12-04 18:09:00",0.00,0.00,0.00,0.00,0.00
"BMW_Series7_Pawn_C_0",1977.72,11381.14,-390.27,-0.03,-92.39,-0.19,"2024-12-04 18:09:00",0.00,0.00,0.00,0.00,0.00
"BMW_Series7_Pawn_C_0",1975.73,11333.14,-390.67,-0.03,-92.40,-0.14,"2024-12-04 18:09:00",0.00,0.00,0.00,0.00,0.00
"BMW_Series7_Pawn_C_0",1974.77,11310.47,-390.86,-0.03,-92.40,-0.11,"2024-12-04 18:09:00",0.00,0.00,0.00,0.00,0.00
"BMW_Series7_Pawn_C_0",1972.86,11264.12,-391.26,-0.04,-92.40,-0.08,"2024-12-04 18:09:00",0.00,0.00,0.00,0.00,0.00
"BMW_Series7_Pawn_C_0",1971.13,11216.46,-391.67,-0.04,-92.31,-0.08,"2024-12-04 18:09:00",0.00,0.00,0.00,0.00,0.00
"BMW_Series7_Pawn_C_0",1970.42,11192.18,-391.88,-0.04,-92.20,-0.11,"2024-12-04 18:09:00",0.00,0.00,0.00,0.00,0.00
"BMW_Series7_Pawn_C_0",1969.52,11140.00,-392.33,-0.04,-91.80,-0.20,"2024-12-04 18:09:00",0.00,0.00,0.00,0.00,0.00
"BMW_Series7_Pawn_C_0",1969.48,11114.70,-392.55,-0.04,-91.50,-0.28,"2024-12-04 18:09:00",0.00,0.00,0.00,0.00,0.00
"BMW_Series7_Pawn_C_0",1970.57,11060.14,-393.02,-0.04,-90.58,-0.48,"2024-12-04 18:09:00",0.00,0.00,0.00,0.00,0.00
"BMW_Series7_Pawn_C_0",1971.35,11032.10,-393.26,-0.04,-90.16,-0.56,"2024-12-04 18:09:00",0.00,0.00,0.00,0.00,0.00
"BMW_Series7_Pawn_C_0",1972.42,10975.64,-393.76,-0.04,-89.72,-0.57,"2024-12-04 18:09:00",0.00,0.00,0.00,0.00,0.00
"BMW_Series7_Pawn_C_0",1972.71,10946.61,-394.01,-0.03,-89.66,-0.52,"2024-12-04 18:09:00",0.00,0.00,0.00,0.00,0.00
"BMW_Series7_Pawn_C_0",1972.91,10917.13,-394.27,-0.03,-89.64,-0.44,"2024-12-04 18:09:00",0.00,0.00,0.00,0.00,0.00
"BMW_Series7_Pawn_C_0",1973.25,10854.44,-394.83,-0.06,-89.63,-0.26,"2024-12-04 18:09:00",0.00,0.00,0.00,0.00,0.00
"BMW_Series7_Pawn_C_0",1973.41,10825.08,-395.09,-0.09,-89.63,-0.18,"2024-12-04 18:09:00",0.00,0.00,0.00,0.00,0.00
"BMW_Series7_Pawn_C_0",1973.91,10764.33,-395.65,-0.20,-89.57,-0.08,"2024-12-04 18:09:00",0.00,0.00,0.00,0.00,0.00
"BMW_Series7_Pawn_C_0",1974.36,10732.21,-395.94,-0.27,-89.48,-0.06,"2024-12-04 18:09:00",0.00,0.00,0.00,0.00,0.00
"BMW_Series7_Pawn_C_0",1975.83,10672.11,-396.51,-0.41,-89.13,-0.12,"2024-12-04 18:09:00",0.00,0.00,0.00,0.00,0.00
"BMW_Series7_Pawn_C_0",1976.94,10643.17,-396.79,-0.47,-88.85,-0.18,"2024-12-04 18:09:00",0.00,0.00,0.00,0.00,0.00
"BMW_Series7_Pawn_C_0",1979.02,10584.98,-397.36,-0.57,-88.53,-0.27,"2024-12-04 18:09:00",0.00,0.00,0.00,0.00,0.00
"BMW_Series7_Pawn_C_0",1979.87,10556.27,-397.65,-0.61,-88.48,-0.28,"2024-12-04 18:09:00",0.00,0.00,0.00,0.00,0.00
"BMW_Series7_Pawn_C_0",1981.48,10497.70,-398.23,-0.65,-88.45,-0.26,"2024-12-04 18:09:00",0.00,0.00,0.00,0.00,0.00
"BMW_Series7_Pawn_C_0",1982.24,10469.12,-398.51,-0.66,-88.45,-0.24,"2024-12-04 18:09:00",0.00,0.00,0.00,0.00,0.00
"BMW_Series7_Pawn_C_0",1983.16,10434.22,-398.84,-0.66,-88.45,-0.21,"2024-12-04 18:09:00",0.00,0.00,0.00,0.00,0.00
"BMW_Series7_Pawn_C_0",1984.72,10375.61,-399.37,-0.63,-88.44,-0.16,"2024-12-04 18:09:01",0.00,0.00,0.00,0.00,0.00
"BMW_Series7_Pawn_C_0",1985.49,10346.84,-399.62,-0.61,-88.44,-0.14,"2024-12-04 18:09:01",0.00,0.00,0.00,0.00,0.00
"BMW_Series7_Pawn_C_0",1986.99,10291.20,-400.10,-0.57,-88.44,-0.12,"2024-12-04 18:09:01",0.00,0.00,0.00,0.00,0.00
"BMW_Series7_Pawn_C_0",1987.73,10264.15,-400.33,-0.55,-88.44,-0.12,"2024-12-04 18:09:01",0.00,0.00,0.00,0.00,0.00
"BMW_Series7_Pawn_C_0",1989.20,10209.76,-400.79,-0.52,-88.44,-0.11,"2024-12-04 18:09:01",0.00,0.00,0.00,0.00,0.00
"BMW_Series7_Pawn_C_0",1989.88,10183.20,-401.01,-0.50,-88.46,-0.11,"2024-12-04 18:09:01",0.00,0.00,0.00,0.00,0.00
"BMW_Series7_Pawn_C_0",1991.04,10129.44,-401.47,-0.49,-88.57,-0.09,"2024-12-04 18:09:01",0.00,0.00,0.00,0.00,0.00
"BMW_Series7_Pawn_C_0",1991.42,10102.84,-401.70,-0.48,-88.69,-0.06,"2024-12-04 18:09:01",0.00,0.00,0.00,0.00,0.00
"BMW_Series7_Pawn_C_0",1991.49,10047.18,-402.18,-0.48,-89.14,0.03,"2024-12-04 18:09:01",0.00,0.00,0.00,0.00,0.00
"BMW_Series7_Pawn_C_0",1991.06,10020.21,-402.41,-0.49,-89.48,0.11,"2024-12-04 18:09:01",0.00,0.00,0.00,0.00,0.00
"BMW_Series7_Pawn_C_0",1990.40,9967.78,-402.87,-0.50,-89.89,0.16,"2024-12-04 18:09:01",0.00,0.00,0.00,0.00,0.00
"BMW_Series7_Pawn_C_0",1990.28,9942.02,-403.09,-0.50,-89.96,0.14,"2024-12-04 18:09:01",0.00,0.00,0.00,0.00,0.00
"BMW_Series7_Pawn_C_0",1990.27,9886.80,-403.58,-0.51,-89.99,0.04,"2024-12-04 18:09:01",0.00,0.00,0.00,0.00,0.00
"BMW_Series7_Pawn_C_0",1990.29,9860.08,-403.82,-0.52,-89.99,-0.02,"2024-12-04 18:09:01",0.00,0.00,0.00,0.00,0.00
"BMW_Series7_Pawn_C_0",1990.35,9808.21,-404.29,-0.53,-89.99,-0.12,"2024-12-04 18:09:01",0.00,0.00,0.00,0.00,0.00
"BMW_Series7_Pawn_C_0",1990.36,9782.65,-404.52,-0.53,-89.99,-0.15,"2024-12-04 18:09:01",0.00,0.00,0.00,0.00,0.00
"BMW_Series7_Pawn_C_0",1990.32,9754.94,-404.78,-0.53,-90.01,-0.18,"2024-12-04 18:09:01",0.00,0.00,0.00,0.00,0.00
"BMW_Series7_Pawn_C_0",1990.15,9704.46,-405.25,-0.54,-90.07,-0.19,"2024-12-04 18:09:01",0.00,0.00,0.00,0.00,0.00
"BMW_Series7_Pawn_C_0",1990.10,9678.72,-405.49,-0.54,-90.07,-0.19,"2024-12-04 18:09:01",0.00,0.00,0.00,0.00,0.00
"BMW_Series7_Pawn_C_0",1990.01,9628.96,-405.95,-0.53,-90.07,-0.18,"2024-12-04 18:09:01",0.00,0.00,0.00,0.00,0.00
"BMW_Series7_Pawn_C_0",1989.97,9605.57,-406.17,-0.53,-90.07,-0.17,"2024-12-04 18:09:01",0.00,0.00,0.00,0.00,0.00
"BMW_Series7_Pawn_C_0",1989.89,9557.29,-406.61,-0.53,-90.07,-0.16,"2024-12-04 18:09:01",0.00,0.00,0.00,0.00,0.00
"BMW_Series7_Pawn_C_0",1989.86,9532.71,-406.84,-0.53,-90.07,-0.15,"2024-12-04 18:09:01",0.00,0.00,0.00,0.00,0.00
"BMW_Series7_Pawn_C_0",1989.79,9483.83,-407.27,-0.50,-90.07,-0.13,"2024-12-04 18:09:01",0.00,0.00,0.00,0.00,0.00
"BMW_Series7_Pawn_C_0",1989.76,9459.89,-407.48,-0.48,-90.07,-0.13,"2024-12-04 18:09:01",0.00,0.00,0.00,0.00,0.00
"BMW_Series7_Pawn_C_0",1989.69,9409.54,-407.91,-0.41,-90.07,-0.12,"2024-12-04 18:09:01",0.00,0.00,0.00,0.00,0.00
"BMW_Series7_Pawn_C_0",1989.66,9385.55,-408.11,-0.36,-90.08,-0.12,"2024-12-04 18:09:01",0.00,0.00,0.00,0.00,0.00
"BMW_Series7_Pawn_C_0",1989.59,9333.75,-408.53,-0.25,-90.09,-0.12,"2024-12-04 18:09:01",0.00,0.00,0.00,0.00,0.00
"BMW_Series7_Pawn_C_0",1989.55,9305.21,-408.76,-0.20,-90.09,-0.12,"2024-12-04 18:09:01",0.00,0.00,0.00,0.00,0.00
"BMW_Series7_Pawn_C_0",1989.47,9249.81,-409.22,-0.14,-90.10,-0.12,"2024-12-04 18:09:01",0.00,0.00,0.00,0.00,0.00
"BMW_Series7_Pawn_C_0",1989.42,9221.62,-409.46,-0.14,-90.10,-0.12,"2024-12-04 18:09:02",0.00,0.00,0.00,0.00,0.00
"BMW_Series7_Pawn_C_0",1989.34,9167.95,-409.93,-0.20,-90.09,-0.11,"2024-12-04 18:09:02",0.00,0.00,0.00,0.00,0.00
"BMW_Series7_Pawn_C_0",1989.30,9141.80,-410.17,-0.25,-90.09,-0.11,"2024-12-04 18:09:02",0.00,0.00,0.00,0.00,0.00
"BMW_Series7_Pawn_C_0",1989.21,9088.04,-410.69,-0.36,-90.09,-0.11,"2024-12-04 18:09:02",0.00,0.00,0.00,0.00,0.00
"BMW_Series7_Pawn_C_0",1989.17,9062.45,-410.94,-0.42,-90.09,-0.12,"2024-12-04 18:09:02",0.00,0.00,0.00,0.00,0.00
"BMW_Series7_Pawn_C_0",1989.08,9006.96,-411.48,-0.50,-90.09,-0.12,"2024-12-04 18:09:02",0.00,0.00,0.00,0.00,0.00
"BMW_Series7_Pawn_C_0",1989.04,8978.81,-411.76,-0.52,-90.09,-0.12,"2024-12-04 18:09:02",0.00,0.00,0.00,0.00,0.00
"BMW_Series7_Pawn_C_0",1989.00,8952.40,-412.02,-0.53,-90.09,-0.13,"2024-12-04 18:09:02",0.00,0.00,0.00,0.00,0.00
"BMW_Series7_Pawn_C_0",1988.91,8897.11,-412.56,-0.53,-90.09,-0.13,"2024-12-04 18:09:02",0.00,0.00,0.00,0.00,0.00
"BMW_Series7_Pawn_C_0",1988.87,8871.39,-412.81,-0.54,-90.09,-0.13,"2024-12-04 18:09:02",0.00,0.00,0.00,0.00,0.00
"BMW_Series7_Pawn_C_0",1988.79,8819.08,-413.32,-0.53,-90.09,-0.13,"2024-12-04 18:09:02",0.00,0.00,0.00,0.00,0.00
"BMW_Series7_Pawn_C_0",1988.75,8792.96,-413.57,-0.52,-90.09,-0.13,"2024-12-04 18:09:02",0.00,0.00,0.00,0.00,0.00
"BMW_Series7_Pawn_C_0",1988.66,8740.20,-414.05,-0.49,-90.09,-0.13,"2024-12-04 18:09:02",0.00,0.00,0.00,0.00,0.00
"BMW_Series7_Pawn_C_0",1988.62,8714.55,-414.28,-0.47,-90.09,-0.13,"2024-12-04 18:09:02",0.00,0.00,0.00,0.00,0.00
"BMW_Series7_Pawn_C_0",1988.53,8661.00,-414.76,-0.43,-90.09,-0.13,"2024-12-04 18:09:02",0.00,0.00,0.00,0.00,0.00
"BMW_Series7_Pawn_C_0",1988.49,8635.87,-414.98,-0.43,-90.09,-0.13,"2024-12-04 18:09:02",0.00,0.00,0.00,0.00,0.00
"BMW_Series7_Pawn_C_0",1988.41,8583.77,-415.44,-0.44,-90.09,-0.13,"2024-12-04 18:09:02",0.00,0.00,0.00,0.00,0.00
"BMW_Series7_Pawn_C_0",1988.36,8556.74,-415.68,-0.44,-90.09,-0.13,"2024-12-04 18:09:02",0.00,0.00,0.00,0.00,0.00
"BMW_Series7_Pawn_C_0",1988.28,8506.39,-416.13,-0.44,-90.09,-0.12,"2024-12-04 18:09:02",0.00,0.00,0.00,0.00,0.00
"BMW_Series7_Pawn_C_0",1988.24,8480.94,-416.35,-0.44,-90.09,-0.12,"2024-12-04 18:09:02",0.00,0.00,0.00,0.00,0.00
"BMW_Series7_Pawn_C_0",1988.15,8423.64,-416.85,-0.40,-90.10,-0.13,"2024-12-04 18:09:02",0.00,0.00,0.00,0.00,0.00
"BMW_Series7_Pawn_C_0",1988.11,8393.98,-417.11,-0.38,-90.10,-0.13,"2024-12-04 18:09:02",0.00,0.00,0.00,0.00,0.00
"BMW_Series7_Pawn_C_0",1988.02,8342.08,-417.57,-0.35,-90.10,-0.13,"2024-12-04 18:09:02",0.00,0.00,0.00,0.00,0.00
"BMW_Series7_Pawn_C_0",1987.97,8316.24,-417.81,-0.35,-90.10,-0.12,"2024-12-04 18:09:02",0.00,0.00,0.00,0.00,0.00
"BMW_Series7_Pawn_C_0",1987.88,8265.09,-418.30,-0.37,-90.10,-0.12,"2024-12-04 18:09:02",0.00,0.00,0.00,0.00,0.00
"BMW_Series7_Pawn_C_0",1987.80,8239.83,-418.55,-0.39,-90.11,-0.12,"2024-12-04 18:09:02",0.00,0.00,0.00,0.00,0.00
"BMW_Series7_Pawn_C_0",1987.67,8185.79,-419.08,-0.45,-90.12,-0.11,"2024-12-04 18:09:02",0.00,0.00,0.00,0.00,0.00
"BMW_Series7_Pawn_C_0",1987.61,8160.27,-419.33,-0.48,-90.12,-0.12,"2024-12-04 18:09:02",0.00,0.00,0.00,0.00,0.00
"BMW_Series7_Pawn_C_0",1987.51,8110.63,-419.82,-0.53,-90.12,-0.12,"2024-12-04 18:09:02",0.00,0.00,0.00,0.00,0.00
"BMW_Series7_Pawn_C_0",1987.41,8061.44,-420.31,-0.57,-90.11,-0.12,"2024-12-04 18:09:02",0.00,0.00,0.00,0.00,0.00
"BMW_Series7_Pawn_C_0",1987.36,8037.99,-420.54,-0.58,-90.12,-0.12,"2024-12-04 18:09:03",0.00,0.00,0.00,0.00,0.00
"BMW_Series7_Pawn_C_0",1987.13,7988.18,-421.02,-0.60,-90.16,-0.12,"2024-12-04 18:09:03",0.00,0.00,0.00,0.00,0.00
"BMW_Series7_Pawn_C_0",1986.91,7964.58,-421.25,-0.60,-90.22,-0.10,"2024-12-04 18:09:03",0.00,0.00,0.00,0.00,0.00
"BMW_Series7_Pawn_C_0",1986.04,7915.91,-421.71,-0.60,-90.48,-0.04,"2024-12-04 18:09:03",0.00,0.00,0.00,0.00,0.00
"BMW_Series7_Pawn_C_0",1985.55,7891.35,-421.93,-0.59,-90.59,-0.02,"2024-12-04 18:09:03",0.00,0.00,0.00,0.00,0.00
"BMW_Series7_Pawn_C_0",1984.85,7842.37,-422.38,-0.57,-90.65,-0.02,"2024-12-04 18:09:03",0.00,0.00,0.00,0.00,0.00
"BMW_Series7_Pawn_C_0",1984.56,7817.82,-422.59,-0.55,-90.66,-0.04,"2024-12-04 18:09:03",0.00,0.00,0.00,0.00,0.00
"BMW_Series7_Pawn_C_0",1983.95,7763.91,-423.05,-0.50,-90.66,-0.08,"2024-12-04 18:09:03",0.00,0.00,0.00,0.00,0.00
"BMW_Series7_Pawn_C_0",1983.65,7737.78,-423.27,-0.46,-90.67,-0.11,"2024-12-04 18:09:03",0.00,0.00,0.00,0.00,0.00
"BMW_Series7_Pawn_C_0",1983.07,7686.24,-423.70,-0.36,-90.67,-0.14,"2024-12-04 18:09:03",0.00,0.00,0.00,0.00,0.00
"BMW_Series7_Pawn_C_0",1982.77,7660.11,-423.92,-0.30,-90.68,-0.15,"2024-12-04 18:09:03",0.00,0.00,0.00,0.00,0.00
"BMW_Series7_Pawn_C_0",1982.16,7608.81,-424.36,-0.19,-90.69,-0.15,"2024-12-04 18:09:03",0.00,0.00,0.00,0.00,0.00
"BMW_Series7_Pawn_C_0",1981.86,7583.09,-424.58,-0.13,-90.69,-0.15,"2024-12-04 18:09:03",0.00,0.00,0.00,0.00,0.00
"BMW_Series7_Pawn_C_0",1981.18,7527.10,-425.09,-0.06,-90.70,-0.14,"2024-12-04 18:09:03",0.00,0.00,0.00,0.00,0.00
"BMW_Series7_Pawn_C_0",1980.85,7500.74,-425.33,-0.06,-90.70,-0.14,"2024-12-04 18:09:03",0.00,0.00,0.00,0.00,0.00
"BMW_Series7_Pawn_C_0",1980.17,7444.93,-425.86,-0.11,-90.70,-0.12,"2024-12-04 18:09:03",0.00,0.00,0.00,0.00,0.00
"BMW_Series7_Pawn_C_0",1979.84,7418.16,-426.12,-0.16,-90.70,-0.12,"2024-12-04 18:09:03",0.00,0.00,0.00,0.00,0.00
"BMW_Series7_Pawn_C_0",1979.19,7365.52,-426.64,-0.26,-90.70,-0.11,"2024-12-04 18:09:03",0.00,0.00,0.00,0.00,0.00
"BMW_Series7_Pawn_C_0",1978.51,7309.44,-427.20,-0.36,-90.70,-0.10,"2024-12-04 18:09:03",0.00,0.00,0.00,0.00,0.00
"BMW_Series7_Pawn_C_0",1978.16,7281.33,-427.48,-0.39,-90.70,-0.10,"2024-12-04 18:09:03",0.00,0.00,0.00,0.00,0.00
"BMW_Series7_Pawn_C_0",1977.49,7225.82,-428.03,-0.40,-90.71,-0.11,"2024-12-04 18:09:03",0.00,0.00,0.00,0.00,0.00
"BMW_Series7_Pawn_C_0",1977.10,7194.46,-428.33,-0.38,-90.72,-0.11,"2024-12-04 18:09:03",0.00,0.00,0.00,0.00,0.00
"BMW_Series7_Pawn_C_0",1976.37,7135.34,-428.88,-0.31,-90.73,-0.12,"2024-12-04 18:09:03",0.00,0.00,0.00,0.00,0.00
"BMW_Series7_Pawn_C_0",1976.00,7105.95,-429.16,-0.27,-90.73,-0.12,"2024-12-04 18:09:03",0.00,0.00,0.00,0.00,0.00
"BMW_Series7_Pawn_C_0",1975.21,7043.78,-429.72,-0.17,-90.74,-0.12,"2024-12-04 18:09:03",0.00,0.00,0.00,0.00,0.00
"BMW_Series7_Pawn_C_0",1974.79,7011.28,-430.02,-0.14,-90.75,-0.12,"2024-12-04 18:09:03",0.00,0.00,0.00,0.00,0.00
"BMW_Series7_Pawn_C_0",1973.99,6948.99,-430.58,-0.11,-90.75,-0.12,"2024-12-04 18:09:03",0.00,0.00,0.00,0.00,0.00
"BMW_Series7_Pawn_C_0",1973.61,6916.19,-430.88,-0.12,-90.73,-0.12,"2024-12-04 18:09:03",0.00,0.00,0.00,0.00,0.00
"BMW_Series7_Pawn_C_0",1973.12,6852.98,-431.47,-0.20,-90.61,-0.15,"2024-12-04 18:09:03",0.00,0.00,0.00,0.00,0.00
"BMW_Series7_Pawn_C_0",1972.86,6817.95,-431.81,-0.27,-90.56,-0.16,"2024-12-04 18:09:03",0.00,0.00,0.00,0.00,0.00
"BMW_Series7_Pawn_C_0",1972.25,6751.09,-432.46,-0.42,-90.54,-0.16,"2024-12-04 18:09:04",0.00,0.00,0.00,0.00,0.00
"BMW_Series7_Pawn_C_0",1971.96,6719.84,-432.77,-0.48,-90.53,-0.15,"2024-12-04 18:09:04",0.00,0.00,0.00,0.00,0.00
"BMW_Series7_Pawn_C_0",1971.39,6659.49,-433.40,-0.59,-90.53,-0.14,"2024-12-04 18:09:04",0.00,0.00,0.00,0.00,0.00
"BMW_Series7_Pawn_C_0",1971.10,6628.10,-433.73,-0.63,-90.53,-0.13,"2024-12-04 18:09:04",0.00,0.00,0.00,0.00,0.00
"BMW_Series7_Pawn_C_0",1970.51,6564.46,-434.40,-0.66,-90.53,-0.13,"2024-12-04 18:09:04",0.00,0.00,0.00,0.00,0.00
"BMW_Series7_Pawn_C_0",1970.24,6535.55,-434.71,-0.66,-90.53,-0.12,"2024-12-04 18:09:04",0.00,0.00,0.00,0.00,0.00
"BMW_Series7_Pawn_C_0",1969.67,6474.00,-435.34,-0.60,-90.53,-0.12,"2024-12-04 18:09:04",0.00,0.00,0.00,0.00,0.00
"BMW_Series7_Pawn_C_0",1969.36,6440.96,-435.67,-0.55,-90.53,-0.12,"2024-12-04 18:09:04",0.00,0.00,0.00,0.00,0.00
"BMW_Series7_Pawn_C_0",1968.81,6381.35,-436.24,-0.49,-90.54,-0.12,"2024-12-04 18:09:04",0.00,0.00,0.00,0.00,0.00
"BMW_Series7_Pawn_C_0",1968.22,6318.46,-436.83,-0.43,-90.54,-0.12,"2024-12-04 18:09:04",0.00,0.00,0.00,0.00,0.00
"BMW_Series7_Pawn_C_0",1967.93,6287.31,-437.12,-0.41,-90.54,-0.12,"2024-12-04 18:09:04",0.00,0.00,0.00,0.00,0.00
"BMW_Series7_Pawn_C_0",1967.37,6227.10,-437.66,-0.39,-90.54,-0.12,"2024-12-04 18:09:04",0.00,0.00,0.00,0.00,0.00
"BMW_Series7_Pawn_C_0",1967.08,6195.38,-437.94,-0.38,-90.54,-0.12,"2024-12-04 18:09:04",0.00,0.00,0.00,0.00,0.00
"BMW_Series7_Pawn_C_0",1966.53,6136.24,-438.47,-0.39,-90.54,-0.12,"2024-12-04 18:09:04",0.00,0.00,0.00,0.00,0.00
"BMW_Series7_Pawn_C_0",1966.22,6103.48,-438.77,-0.40,-90.53,-0.12,"2024-12-04 18:09:04",0.00,0.00,0.00,0.00,0.00
"BMW_Series7_Pawn_C_0",1965.66,6043.30,-439.33,-0.44,-90.53,-0.12,"2024-12-04 18:09:04",0.00,0.00,0.00,0.00,0.00
"BMW_Series7_Pawn_C_0",1965.10,5983.10,-439.90,-0.47,-90.53,-0.12,"2024-12-04 18:09:04",0.00,0.00,0.00,0.00,0.00
"BMW_Series7_Pawn_C_0",1964.81,5951.78,-440.21,-0.48,-90.53,-0.12,"2024-12-04 18:09:04",0.00,0.00,0.00,0.00,0.00
"BMW_Series7_Pawn_C_0",1964.25,5891.75,-440.81,-0.49,-90.53,-0.12,"2024-12-04 18:09:04",0.00,0.00,0.00,0.00,0.00
"BMW_Series7_Pawn_C_0",1963.97,5862.12,-441.11,-0.50,-90.53,-0.12,"2024-12-04 18:09:04",0.00,0.00,0.00,0.00,0.00
"BMW_Series7_Pawn_C_0",1963.43,5803.57,-441.71,-0.52,-90.53,-0.12,"2024-12-04 18:09:04",0.00,0.00,0.00,0.00,0.00
"BMW_Series7_Pawn_C_0",1962.87,5743.64,-442.33,-0.54,-90.53,-0.12,"2024-12-04 18:09:04",0.00,0.00,0.00,0.00,0.00
"BMW_Series7_Pawn_C_0",1962.57,5710.98,-442.66,-0.55,-90.53,-0.12,"2024-12-04 18:09:04",0.00,0.00,0.00,0.00,0.00
"BMW_Series7_Pawn_C_0",1962.03,5652.28,-443.25,-0.56,-90.53,-0.12,"2024-12-04 18:09:04",0.00,0.00,0.00,0.00,0.00
"BMW_Series7_Pawn_C_0",1961.76,5622.92,-443.54,-0.57,-90.53,-0.12,"2024-12-04 18:09:04",0.00,0.00,0.00,0.00,0.00
"BMW_Series7_Pawn_C_0",1961.20,5562.44,-444.13,-0.57,-90.52,-0.12,"2024-12-04 18:09:04",0.00,0.00,0.00,0.00,0.00
"BMW_Series7_Pawn_C_0",1960.94,5534.36,-444.41,-0.57,-90.52,-0.13,"2024-12-04 18:09:04",0.00,0.00,0.00,0.00,0.00
"BMW_Series7_Pawn_C_0",1960.41,5475.41,-444.97,-0.57,-90.52,-0.13,"2024-12-04 18:09:04",0.00,0.00,0.00,0.00,0.00
"BMW_Series7_Pawn_C_0",1960.15,5446.98,-445.25,-0.57,-90.52,-0.13,"2024-12-04 18:09:04",0.00,0.00,0.00,0.00,0.00
"BMW_Series7_Pawn_C_0",1959.59,5385.52,-445.83,-0.56,-90.52,-0.13,"2024-12-04 18:09:04",0.00,0.00,0.00,0.00,0.00
"BMW_Series7_Pawn_C_0",1959.31,5355.01,-446.11,-0.56,-90.52,-0.13,"2024-12-04 18:09:05",0.00,0.00,0.00,0.00,0.00
"BMW_Series7_Pawn_C_0",1958.78,5296.26,-446.67,-0.55,-90.52,-0.12,"2024-12-04 18:09:05",0.00,0.00,0.00,0.00,0.00
"BMW_Series7_Pawn_C_0",1958.51,5266.37,-446.95,-0.55,-90.51,-0.12,"2024-12-04 18:09:05",0.00,0.00,0.00,0.00,0.00
"BMW_Series7_Pawn_C_0",1957.99,5208.83,-447.51,-0.54,-90.51,-0.12,"2024-12-04 18:09:05",0.00,0.00,0.00,0.00,0.00
"BMW_Series7_Pawn_C_0",1957.47,5151.10,-448.07,-0.54,-90.51,-0.12,"2024-12-04 18:09:05",0.00,0.00,0.00,0.00,0.00
"BMW_Series7_Pawn_C_0",1957.20,5120.05,-448.38,-0.54,-90.51,-0.12,"2024-12-04 18:09:05",0.00,0.00,0.00,0.00,0.00
"BMW_Series7_Pawn_C_0",1956.68,5062.06,-448.95,-0.54,-90.51,-0.12,"2024-12-04 18:09:05",0.00,0.00,0.00,0.00,0.00
"BMW_Series7_Pawn_C_0",1956.42,5033.09,-449.24,-0.54,-90.51,-0.12,"2024-12-04 18:09:05",0.00,0.00,0.00,0.00,0.00
"BMW_Series7_Pawn_C_0",1955.95,4979.78,-449.78,-0.54,-90.51,-0.12,"2024-12-04 18:09:05",0.00,0.00,0.00,0.00,0.00
"BMW_Series7_Pawn_C_0",1955.71,4953.15,-450.05,-0.54,-90.50,-0.12,"2024-12-04 18:09:05",0.00,0.00,0.00,0.00,0.00
"BMW_Series7_Pawn_C_0",1955.22,4896.94,-450.61,-0.54,-90.50,-0.12,"2024-12-04 18:09:05",0.00,0.00,0.00,0.00,0.00
"BMW_Series7_Pawn_C_0",1954.98,4869.24,-450.89,-0.54,-90.50,-0.12,"2024-12-04 18:09:05",0.00,0.00,0.00,0.00,0.00
"BMW_Series7_Pawn_C_0",1954.49,4814.40,-451.44,-0.54,-90.50,-0.12,"2024-12-04 18:09:05",0.00,0.00,0.00,0.00,0.00
"BMW_Series7_Pawn_C_0",1954.22,4783.14,-451.74,-0.54,-90.50,-0.12,"2024-12-04 18:09:05",0.00,0.00,0.00,0.00,0.00
"BMW_Series7_Pawn_C_0",1953.74,4728.54,-452.27,-0.54,-90.50,-0.12,"2024-12-04 18:09:05",0.00,0.00,0.00,0.00,0.00
"BMW_Series7_Pawn_C_0",1953.51,4701.86,-452.53,-0.54,-90.50,-0.12,"2024-12-04 18:09:05",0.00,0.00,0.00,0.00,0.00
"BMW_Series7_Pawn_C_0",1953.01,4643.77,-453.09,-0.54,-90.49,-0.12,"2024-12-04 18:09:05",0.00,0.00,0.00,0.00,0.00
"BMW_Series7_Pawn_C_0",1952.55,4590.56,-453.60,-0.54,-90.49,-0.12,"2024-12-04 18:09:05",0.00,0.00,0.00,0.00,0.00
"BMW_Series7_Pawn_C_0",1952.33,4565.39,-453.85,-0.54,-90.49,-0.12,"2024-12-04 18:09:05",0.00,0.00,0.00,0.00,0.00
"BMW_Series7_Pawn_C_0",1951.88,4513.14,-454.40,-0.55,-90.49,-0.12,"2024-12-04 18:09:05",0.00,0.00,0.00,0.00,0.00
"BMW_Series7_Pawn_C_0",1951.63,4484.13,-454.71,-0.56,-90.49,-0.13,"2024-12-04 18:09:05",0.00,0.00,0.00,0.00,0.00
"BMW_Series7_Pawn_C_0",1951.18,4430.88,-455.29,-0.57,-90.49,-0.14,"2024-12-04 18:09:05",0.00,0.00,0.00,0.00,0.00
"BMW_Series7_Pawn_C_0",1950.96,4404.26,-455.59,-0.58,-90.49,-0.14,"2024-12-04 18:09:05",0.00,0.00,0.00,0.00,0.00
"BMW_Series7_Pawn_C_0",1950.52,4352.76,-456.18,-0.60,-90.49,-0.15,"2024-12-04 18:09:05",0.00,0.00,0.00,0.00,0.00
"BMW_Series7_Pawn_C_0",1950.29,4324.66,-456.50,-0.61,-90.49,-0.16,"2024-12-04 18:09:05",0.00,0.00,0.00,0.00,0.00
"BMW_Series7_Pawn_C_0",1949.85,4272.89,-457.08,-0.63,-90.48,-0.16,"2024-12-04 18:09:05",0.00,0.00,0.00,0.00,0.00
"BMW_Series7_Pawn_C_0",1949.43,4223.77,-457.62,-0.66,-90.48,-0.16,"2024-12-04 18:09:05",0.00,0.00,0.00,0.00,0.00
"BMW_Series7_Pawn_C_0",1949.22,4199.30,-457.89,-0.68,-90.48,-0.15,"2024-12-04 18:09:05",0.00,0.00,0.00,0.00,0.00
"BMW_Series7_Pawn_C_0",1948.82,4151.93,-458.36,-0.75,-90.47,-0.14,"2024-12-04 18:09:05",0.00,0.00,0.00,0.00,0.00
"BMW_Series7_Pawn_C_0",1948.62,4128.07,-458.56,-0.79,-90.46,-0.14,"2024-12-04 18:09:05",0.00,0.00,0.00,0.00,0.00
"BMW_Series7_Pawn_C_0",1948.28,4081.98,-458.88,-0.86,-90.43,-0.13,"2024-12-04 18:09:06",0.00,0.00,0.00,0.00,0.00
"BMW_Series7_Pawn_C_0",1948.17,4039.83,-459.05,-0.90,-90.34,-0.14,"2024-12-04 18:09:06",0.00,0.00,0.00,0.00,0.00
"BMW_Series7_Pawn_C_0",1948.26,4019.55,-459.08,-0.90,-90.25,-0.15,"2024-12-04 18:09:06",0.00,0.00,0.00,0.00,0.00
"BMW_Series7_Pawn_C_0",1948.86,3981.38,-459.06,-0.86,-89.95,-0.20,"2024-12-04 18:09:06",0.00,0.00,0.00,0.00,0.00
"BMW_Series7_Pawn_C_0",1949.39,3963.71,-459.02,-0.83,-89.74,-0.23,"2024-12-04 18:09:06",0.00,0.00,0.00,0.00,0.00
"BMW_Series7_Pawn_C_0",1951.12,3928.28,-458.90,-0.71,-89.15,-0.30,"2024-12-04 18:09:06",0.00,0.00,0.00,0.00,0.00
"BMW_Series7_Pawn_C_0",1952.21,3913.01,-458.85,-0.64,-88.82,-0.34,"2024-12-04 18:09:06",0.00,0.00,0.00,0.00,0.00
"BMW_Series7_Pawn_C_0",1955.25,3881.61,-458.76,-0.48,-87.94,-0.41,"2024-12-04 18:09:06",0.00,0.00,0.00,0.00,0.00
"BMW_Series7_Pawn_C_0",1958.92,3854.74,-458.74,-0.34,-86.95,-0.46,"2024-12-04 18:09:06",0.00,0.00,0.00,0.00,0.00
"BMW_Series7_Pawn_C_0",1961.06,3842.08,-458.74,-0.28,-86.40,-0.48,"2024-12-04 18:09:06",0.00,0.00,0.00,0.00,0.00
"BMW_Series7_Pawn_C_0",1966.00,3817.90,-458.82,-0.19,-85.17,-0.50,"2024-12-04 18:09:06",0.00,0.00,0.00,0.00,0.00
"BMW_Series7_Pawn_C_0",1968.70,3806.73,-458.88,-0.17,-84.52,-0.50,"2024-12-04 18:09:06",0.00,0.00,0.00,0.00,0.00
"BMW_Series7_Pawn_C_0",1974.61,3785.72,-459.07,-0.17,-83.15,-0.50,"2024-12-04 18:09:06",0.00,0.00,0.00,0.00,0.00
"BMW_Series7_Pawn_C_0",1981.08,3766.49,-459.33,-0.22,-81.70,-0.45,"2024-12-04 18:09:06",0.00,0.00,0.00,0.00,0.00
"BMW_Series7_Pawn_C_0",1984.29,3757.95,-459.47,-0.27,-81.00,-0.42,"2024-12-04 18:09:06",0.00,0.00,0.00,0.00,0.00
"BMW_Series7_Pawn_C_0",1991.40,3740.76,-459.75,-0.38,-79.51,-0.31,"2024-12-04 18:09:06",0.00,0.00,0.00,0.00,0.00
"BMW_Series7_Pawn_C_0",1994.72,3733.63,-459.86,-0.43,-78.81,-0.27,"2024-12-04 18:09:06",0.00,0.00,0.00,0.00,0.00
"BMW_Series7_Pawn_C_0",2002.25,3718.99,-460.06,-0.52,-77.26,-0.22,"2024-12-04 18:09:06",0.00,0.00,0.00,0.00,0.00
"BMW_Series7_Pawn_C_0",2009.23,3704.88,-460.20,-0.56,-76.08,-0.11,"2024-12-04 18:09:06",0.00,0.00,0.00,0.00,0.00
"BMW_Series7_Pawn_C_0",2012.27,3697.89,-460.26,-0.56,-75.68,-0.01,"2024-12-04 18:09:06",0.00,0.00,0.00,0.00,0.00
"BMW_Series7_Pawn_C_0",2017.81,3683.33,-460.34,-0.56,-75.18,0.24,"2024-12-04 18:09:06",0.00,0.00,0.00,0.00,0.00
"BMW_Series7_Pawn_C_0",2022.56,3668.70,-460.41,-0.55,-74.97,0.46,"2024-12-04 18:09:06",0.00,0.00,0.00,0.00,0.00
"BMW_Series7_Pawn_C_0",2024.71,3661.49,-460.44,-0.55,-74.93,0.54,"2024-12-04 18:09:06",0.00,0.00,0.00,0.00,0.00
"BMW_Series7_Pawn_C_0",2028.99,3646.44,-460.50,-0.56,-74.91,0.63,"2024-12-04 18:09:06",0.00,0.00,0.00,0.00,0.00
"BMW_Series7_Pawn_C_0",2031.00,3639.25,-460.53,-0.57,-74.91,0.63,"2024-12-04 18:09:06",0.00,0.00,0.00,0.00,0.00
"BMW_Series7_Pawn_C_0",2035.28,3623.91,-460.62,-0.60,-74.92,0.54,"2024-12-04 18:09:06",0.00,0.00,0.00,0.00,0.00
"BMW_Series7_Pawn_C_0",2039.28,3609.56,-460.73,-0.64,-74.92,0.41,"2024-12-04 18:09:06",0.00,0.00,0.00,0.00,0.00
"BMW_Series7_Pawn_C_0",2041.18,3602.72,-460.80,-0.67,-74.92,0.35,"2024-12-04 18:09:06",0.00,0.00,0.00,0.00,0.00
"BMW_Series7_Pawn_C_0",2045.44,3587.29,-460.97,-0.73,-74.93,0.20,"2024-12-04 18:09:06",0.00,0.00,0.00,0.00,0.00
"BMW_Series7_Pawn_C_0",2047.39,3580.19,-461.06,-0.76,-74.93,0.15,"2024-12-04 18:09:06",0.00,0.00,0.00,0.00,0.00
"BMW_Series7_Pawn_C_0",2051.59,3564.80,-461.27,-0.82,-74.93,0.06,"2024-12-04 18:09:07",0.00,0.00,0.00,0.00,0.00
"BMW_Series7_Pawn_C_0",2053.50,3557.75,-461.37,-0.85,-74.93,0.04,"2024-12-04 18:09:07",0.00,0.00,0.00,0.00,0.00
"BMW_Series7_Pawn_C_0",2057.30,3543.76,-461.58,-0.90,-74.92,0.02,"2024-12-04 18:09:07",0.00,0.00,0.00,0.00,0.00
"BMW_Series7_Pawn_C_0",2061.17,3529.74,-461.79,-0.94,-74.88,0.01,"2024-12-04 18:09:07",0.00,0.00,0.00,0.00,0.00
"BMW_Series7_Pawn_C_0",2063.03,3523.18,-461.90,-0.95,-74.85,-0.00,"2024-12-04 18:09:07",0.00,0.00,0.00,0.00,0.00
"BMW_Series7_Pawn_C_0",2067.08,3509.53,-462.12,-0.98,-74.72,-0.03,"2024-12-04 18:09:07",0.00,0.00,0.00,0.00,0.00
"BMW_Series7_Pawn_C_0",2069.09,3503.13,-462.23,-0.99,-74.63,-0.05,"2024-12-04 18:09:07",0.00,0.00,0.00,0.00,0.00
"BMW_Series7_Pawn_C_0",2073.74,3489.25,-462.47,-1.01,-74.34,-0.11,"2024-12-04 18:09:07",0.00,0.00,0.00,0.00,0.00
"BMW_Series7_Pawn_C_0",2078.49,3476.46,-462.71,-1.01,-73.94,-0.17,"2024-12-04 18:09:07",0.00,0.00,0.00,0.00,0.00
"BMW_Series7_Pawn_C_0",2080.98,3470.33,-462.83,-1.01,-73.69,-0.21,"2024-12-04 18:09:07",0.00,0.00,0.00,0.00,0.00
"BMW_Series7_Pawn_C_0",2086.41,3458.14,-463.08,-1.02,-73.06,-0.29,"2024-12-04 18:09:07",0.00,0.00,0.00,0.00,0.00
"BMW_Series7_Pawn_C_0",2089.50,3451.89,-463.21,-1.02,-72.66,-0.34,"2024-12-04 18:09:07",0.00,0.00,0.00,0.00,0.00
"BMW_Series7_Pawn_C_0",2096.13,3440.00,-463.47,-1.02,-71.68,-0.42,"2024-12-04 18:09:07",0.00,0.00,0.00,0.00,0.00
"BMW_Series7_Pawn_C_0",2103.10,3429.38,-463.71,-1.03,-70.54,-0.51,"2024-12-04 18:09:07",0.00,0.00,0.00,0.00,0.00
"BMW_Series7_Pawn_C_0",2106.60,3424.48,-463.82,-1.04,-69.96,-0.54,"2024-12-04 18:09:07",0.00,0.00,0.00,0.00,0.00
"BMW_Series7_Pawn_C_0",2114.36,3414.19,-464.06,-1.05,-68.70,-0.55,"2024-12-04 18:09:07",0.00,0.00,0.00,0.00,0.00
"BMW_Series7_Pawn_C_0",2121.72,3404.81,-464.27,-1.06,-67.57,-0.49,"2024-12-04 18:09:07",0.00,0.00,0.00,0.00,0.00
"BMW_Series7_Pawn_C_0",2125.08,3400.26,-464.37,-1.08,-67.14,-0.41,"2024-12-04 18:09:07",0.00,0.00,0.00,0.00,0.00
"BMW_Series7_Pawn_C_0",2130.27,3392.43,-464.55,-1.14,-66.63,-0.19,"2024-12-04 18:09:07",0.00,0.00,0.00,0.00,0.00
"BMW_Series7_Pawn_C_0",2132.49,3388.67,-464.63,-1.18,-66.48,-0.06,"2024-12-04 18:09:07",0.00,0.00,0.00,0.00,0.00
"BMW_Series7_Pawn_C_0",2135.71,3382.67,-464.76,-1.28,-66.33,0.16,"2024-12-04 18:09:07",0.00,0.00,0.00,0.00,0.00
"BMW_Series7_Pawn_C_0",2137.65,3378.75,-464.83,-1.38,-66.28,0.28,"2024-12-04 18:09:07",0.00,0.00,0.00,0.00,0.00
"BMW_Series7_Pawn_C_0",2138.32,3377.38,-464.85,-1.43,-66.27,0.29,"2024-12-04 18:09:07",0.00,0.00,0.00,0.00,0.00
"BMW_Series7_Pawn_C_0",2139.16,3375.74,-464.86,-1.49,-66.26,0.25,"2024-12-04 18:09:07",0.00,0.00,0.00,0.00,0.00
"BMW_Series7_Pawn_C_0",2139.77,3374.65,-464.85,-1.48,-66.26,0.13,"2024-12-04 18:09:07",0.00,0.00,0.00,0.00,0.00
"BMW_Series7_Pawn_C_0",2140.02,3374.21,-464.84,-1.45,-66.26,0.06,"2024-12-04 18:09:07",0.00,0.00,0.00,0.00,0.00
"BMW_Series7_Pawn_C_0",2140.34,3373.72,-464.83,-1.36,-66.26,-0.08,"2024-12-04 18:09:07",0.00,0.00,0.00,0.00,0.00
"BMW_Series7_Pawn_C_0",2140.40,3373.68,-464.83,-1.31,-66.26,-0.14,"2024-12-04 18:09:07",0.00,0.00,0.00,0.00,0.00
"BMW_Series7_Pawn_C_0",2140.45,3373.69,-464.83,-1.19,-66.26,-0.23,"2024-12-04 18:09:07",0.00,0.00,0.00,0.00,0.00
"BMW_Series7_Pawn_C_0",2140.49,3373.65,-464.86,-1.07,-66.26,-0.29,"2024-12-04 18:09:07",0.00,0.00,0.00,0.00,0.00
"BMW_Series7_Pawn_C_0",2140.51,3373.63,-464.88,-1.01,-66.26,-0.30,"2024-12-04 18:09:08",0.00,0.00,0.00,0.00,0.00
"BMW_Series7_Pawn_C_0",2140.51,3373.58,-464.92,-0.92,-66.26,-0.30,"2024-12-04 18:09:08",0.00,0.00,0.00,0.00,0.00
"BMW_Series7_Pawn_C_0",2140.50,3373.55,-464.97,-0.86,-66.26,-0.27,"2024-12-04 18:09:08",0.00,0.00,0.00,0.00,0.00
"BMW_Series7_Pawn_C_0",2140.49,3373.54,-464.99,-0.84,-66.26,-0.26,"2024-12-04 18:09:08",0.00,0.00,0.00,0.00,0.00
"BMW_Series7_Pawn_C_0",2140.47,3373.53,-465.02,-0.83,-66.26,-0.22,"2024-12-04 18:09:08",0.00,0.00,0.00,0.00,0.00
"BMW_Series7_Pawn_C_0",2140.46,3373.53,-465.03,-0.83,-66.26,-0.21,"2024-12-04 18:09:08",0.00,0.00,0.00,0.00,0.00
"BMW_Series7_Pawn_C_0",2140.44,3373.55,-465.02,-0.86,-66.26,-0.18,"2024-12-04 18:09:08",0.00,0.00,0.00,0.00,0.00
"BMW_Series7_Pawn_C_0",2140.43,3373.56,-465.01,-0.88,-66.26,-0.17,"2024-12-04 18:09:08",0.00,0.00,0.00,0.00,0.00
"BMW_Series7_Pawn_C_0",2140.41,3373.59,-464.98,-0.91,-66.26,-0.17,"2024-12-04 18:09:08",0.00,0.00,0.00,0.00,0.00
"BMW_Series7_Pawn_C_0",2140.41,3373.60,-464.96,-0.93,-66.26,-0.16,"2024-12-04 18:09:08",0.00,0.00,0.00,0.00,0.00
"BMW_Series7_Pawn_C_0",2140.40,3373.62,-464.91,-0.97,-66.26,-0.17,"2024-12-04 18:09:08",0.00,0.00,0.00,0.00,0.00
"BMW_Series7_Pawn_C_0",2140.40,3373.63,-464.89,-0.98,-66.26,-0.17,"2024-12-04 18:09:08",0.00,0.00,0.00,0.00,0.00
"BMW_Series7_Pawn_C_0",2140.39,3373.68,-464.86,-1.00,-66.26,-0.18,"2024-12-04 18:09:08",0.00,0.00,0.00,0.00,0.00
"BMW_Series7_Pawn_C_0",2140.25,3374.00,-464.84,-1.03,-66.26,-0.19,"2024-12-04 18:09:08",0.00,0.00,0.00,0.00,0.00
"BMW_Series7_Pawn_C_0",2140.12,3374.31,-464.84,-1.04,-66.25,-0.19,"2024-12-04 18:09:08",0.00,0.00,0.00,0.00,0.00
"BMW_Series7_Pawn_C_0",2139.59,3375.52,-464.84,-1.07,-66.25,-0.19,"2024-12-04 18:09:08",0.00,0.00,0.00,0.00,0.00
"BMW_Series7_Pawn_C_0",2138.74,3377.46,-464.83,-1.11,-66.25,-0.19,"2024-12-04 18:09:08",0.00,0.00,0.00,0.00,0.00
"BMW_Series7_Pawn_C_0",2138.21,3378.64,-464.82,-1.13,-66.24,-0.19,"2024-12-04 18:09:08",0.00,0.00,0.00,0.00,0.00
"BMW_Series7_Pawn_C_0",2136.93,3381.57,-464.79,-1.16,-66.24,-0.19,"2024-12-04 18:09:08",0.00,0.00,0.00,0.00,0.00
"BMW_Series7_Pawn_C_0",2136.21,3383.19,-464.77,-1.17,-66.24,-0.19,"2024-12-04 18:09:08",0.00,0.00,0.00,0.00,0.00
"BMW_Series7_Pawn_C_0",2134.44,3387.20,-464.71,-1.18,-66.23,-0.19,"2024-12-04 18:09:08",0.00,0.00,0.00,0.00,0.00
"BMW_Series7_Pawn_C_0",2132.42,3391.79,-464.62,-1.18,-66.23,-0.19,"2024-12-04 18:09:08",0.00,0.00,0.00,0.00,0.00
"BMW_Series7_Pawn_C_0",2131.31,3394.30,-464.57,-1.18,-66.23,-0.19,"2024-12-04 18:09:08",0.00,0.00,0.00,0.00,0.00
"BMW_Series7_Pawn_C_0",2128.93,3399.70,-464.46,-1.17,-66.22,-0.19,"2024-12-04 18:09:08",0.00,0.00,0.00,0.00,0.00
"BMW_Series7_Pawn_C_0",2126.27,3405.74,-464.34,-1.16,-66.22,-0.18,"2024-12-04 18:09:08",0.00,0.00,0.00,0.00,0.00
"BMW_Series7_Pawn_C_0",2124.80,3409.06,-464.27,-1.16,-66.22,-0.18,"2024-12-04 18:09:08",0.00,0.00,0.00,0.00,0.00
"BMW_Series7_Pawn_C_0",2121.63,3416.13,-464.12,-1.14,-66.23,-0.18,"2024-12-04 18:09:08",0.00,0.00,0.00,0.00,0.00
"BMW_Series7_Pawn_C_0",2118.07,3423.85,-463.97,-1.13,-66.28,-0.16,"2024-12-04 18:09:08",0.00,0.00,0.00,0.00,0.00
"BMW_Series7_Pawn_C_0",2116.13,3427.95,-463.88,-1.13,-66.33,-0.15,"2024-12-04 18:09:08",0.00,0.00,0.00,0.00,0.00
"BMW_Series7_Pawn_C_0",2111.88,3436.61,-463.71,-1.12,-66.47,-0.12,"2024-12-04 18:09:08",0.00,0.00,0.00,0.00,0.00
"BMW_Series7_Pawn_C_0",2109.62,3441.02,-463.62,-1.12,-66.57,-0.10,"2024-12-04 18:09:09",0.00,0.00,0.00,0.00,0.00
"BMW_Series7_Pawn_C_0",2104.39,3450.77,-463.42,-1.11,-66.89,-0.06,"2024-12-04 18:09:09",0.00,0.00,0.00,0.00,0.00
"BMW_Series7_Pawn_C_0",2098.73,3460.58,-463.21,-1.11,-67.36,-0.01,"2024-12-04 18:09:09",0.00,0.00,0.00,0.00,0.00
"BMW_Series7_Pawn_C_0",2095.78,3465.40,-463.11,-1.11,-67.65,0.02,"2024-12-04 18:09:09",0.00,0.00,0.00,0.00,0.00
"BMW_Series7_Pawn_C_0",2088.79,3476.12,-462.88,-1.10,-68.45,0.08,"2024-12-04 18:09:09",0.00,0.00,0.00,0.00,0.00
"BMW_Series7_Pawn_C_0",2081.68,3486.02,-462.67,-1.08,-69.46,0.14,"2024-12-04 18:09:09",0.00,0.00,0.00,0.00,0.00
"BMW_Series7_Pawn_C_0",2077.57,3491.37,-462.55,-1.06,-70.10,0.17,"2024-12-04 18:09:09",0.00,0.00,0.00,0.00,0.00
"BMW_Series7_Pawn_C_0",2069.19,3502.17,-462.31,-1.04,-71.46,0.18,"2024-12-04 18:09:09",0.00,0.00,0.00,0.00,0.00
"BMW_Series7_Pawn_C_0",2065.15,3507.44,-462.19,-1.04,-72.13,0.17,"2024-12-04 18:09:09",0.00,0.00,0.00,0.00,0.00
"BMW_Series7_Pawn_C_0",2056.51,3518.99,-461.95,-1.03,-73.60,0.11,"2024-12-04 18:09:09",0.00,0.00,0.00,0.00,0.00
"BMW_Series7_Pawn_C_0",2048.15,3530.66,-461.73,-1.03,-75.06,0.03,"2024-12-04 18:09:09",0.00,0.00,0.00,0.00,0.00
"BMW_Series7_Pawn_C_0",2043.83,3536.91,-461.61,-1.03,-75.84,-0.01,"2024-12-04 18:09:09",0.00,0.00,0.00,0.00,0.00
"BMW_Series7_Pawn_C_0",2035.34,3549.51,-461.39,-1.02,-77.41,-0.07,"2024-12-04 18:09:09",0.00,0.00,0.00,0.00,0.00
"BMW_Series7_Pawn_C_0",2030.73,3556.52,-461.27,-1.01,-78.29,-0.09,"2024-12-04 18:09:09",0.00,0.00,0.00,0.00,0.00
"BMW_Series7_Pawn_C_0",2022.85,3568.91,-461.07,-0.97,-79.85,-0.14,"2024-12-04 18:09:09",0.00,0.00,0.00,0.00,0.00
"BMW_Series7_Pawn_C_0",2015.18,3581.56,-460.89,-0.91,-81.44,-0.17,"2024-12-04 18:09:09",0.00,0.00,0.00,0.00,0.00
"BMW_Series7_Pawn_C_0",2011.54,3587.82,-460.81,-0.88,-82.22,-0.18,"2024-12-04 18:09:09",0.00,0.00,0.00,0.00,0.00
"BMW_Series7_Pawn_C_0",2003.70,3601.93,-460.64,-0.80,-83.94,-0.19,"2024-12-04 18:09:09",0.00,0.00,0.00,0.00,0.00
"BMW_Series7_Pawn_C_0",2000.46,3608.05,-460.58,-0.77,-84.68,-0.19,"2024-12-04 18:09:09",0.00,0.00,0.00,0.00,0.00
"BMW_Series7_Pawn_C_0",1995.04,3620.64,-460.47,-0.71,-85.84,-0.26,"2024-12-04 18:09:09",0.00,0.00,0.00,0.00,0.00
"BMW_Series7_Pawn_C_0",1991.08,3634.26,-460.36,-0.66,-86.57,-0.41,"2024-12-04 18:09:09",0.00,0.00,0.00,0.00,0.00
"BMW_Series7_Pawn_C_0",1989.79,3640.71,-460.31,-0.64,-86.75,-0.49,"2024-12-04 18:09:09",0.00,0.00,0.00,0.00,0.00
"BMW_Series7_Pawn_C_0",1987.91,3654.05,-460.22,-0.60,-86.94,-0.59,"2024-12-04 18:09:09",0.00,0.00,0.00,0.00,0.00
"BMW_Series7_Pawn_C_0",1986.67,3667.40,-460.14,-0.55,-86.98,-0.58,"2024-12-04 18:09:09",0.00,0.00,0.00,0.00,0.00
"BMW_Series7_Pawn_C_0",1986.18,3673.81,-460.11,-0.53,-86.98,-0.54,"2024-12-04 18:09:09",0.00,0.00,0.00,0.00,0.00
"BMW_Series7_Pawn_C_0",1985.21,3687.44,-460.02,-0.46,-86.98,-0.35,"2024-12-04 18:09:09",0.00,0.00,0.00,0.00,0.00
"BMW_Series7_Pawn_C_0",1984.79,3693.64,-459.98,-0.42,-86.98,-0.25,"2024-12-04 18:09:09",0.00,0.00,0.00,0.00,0.00
"BMW_Series7_Pawn_C_0",1983.97,3706.05,-459.89,-0.32,-86.98,-0.02,"2024-12-04 18:09:09",0.00,0.00,0.00,0.00,0.00
"BMW_Series7_Pawn_C_0",1983.60,3711.80,-459.84,-0.27,-86.98,0.08,"2024-12-04 18:09:09",0.00,0.00,0.00,0.00,0.00
"BMW_Series7_Pawn_C_0",1982.94,3722.60,-459.76,-0.17,-86.99,0.23,"2024-12-04 18:09:09",0.00,0.00,0.00,0.00,0.00
"BMW_Series7_Pawn_C_0",1982.40,3732.34,-459.70,-0.08,-86.99,0.32,"2024-12-04 18:09:10",0.00,0.00,0.00,0.00,0.00
"BMW_Series7_Pawn_C_0",1982.16,3736.94,-459.68,-0.04,-86.99,0.34,"2024-12-04 18:09:10",0.00,0.00,0.00,0.00,0.00
"BMW_Series7_Pawn_C_0",1981.74,3745.41,-459.65,0.03,-87.00,0.33,"2024-12-04 18:09:10",0.00,0.00,0.00,0.00,0.00
"BMW_Series7_Pawn_C_0",1981.37,3753.17,-459.62,0.07,-87.01,0.29,"2024-12-04 18:09:10",0.00,0.00,0.00,0.00,0.00
"BMW_Series7_Pawn_C_0",1981.21,3756.63,-459.61,0.09,-87.01,0.27,"2024-12-04 18:09:10",0.00,0.00,0.00,0.00,0.00
"BMW_Series7_Pawn_C_0",1980.91,3763.08,-459.60,0.12,-87.01,0.22,"2024-12-04 18:09:10",0.00,0.00,0.00,0.00,0.00
"BMW_Series7_Pawn_C_0",1980.78,3765.92,-459.60,0.13,-87.02,0.19,"2024-12-04 18:09:10",0.00,0.00,0.00,0.00,0.00
"BMW_Series7_Pawn_C_0",1980.55,3771.18,-459.59,0.14,-87.02,0.14,"2024-12-04 18:09:10",0.00,0.00,0.00,0.00,0.00
"BMW_Series7_Pawn_C_0",1980.37,3775.61,-459.57,0.14,-87.01,0.10,"2024-12-04 18:09:10",0.00,0.00,0.00,0.00,0.00
"BMW_Series7_Pawn_C_0",1980.31,3777.57,-459.55,0.14,-87.00,0.09,"2024-12-04 18:09:10",0.00,0.00,0.00,0.00,0.00
"BMW_Series7_Pawn_C_0",1980.25,3780.77,-459.52,0.14,-86.97,0.07,"2024-12-04 18:09:10",0.00,0.00,0.00,0.00,0.00
"BMW_Series7_Pawn_C_0",1980.25,3783.14,-459.49,0.15,-86.92,0.07,"2024-12-04 18:09:10",0.00,0.00,0.00,0.00,0.00
"BMW_Series7_Pawn_C_0",1980.28,3784.03,-459.48,0.15,-86.90,0.08,"2024-12-04 18:09:10",0.00,0.00,0.00,0.00,0.00
"BMW_Series7_Pawn_C_0",1980.37,3785.23,-459.46,0.16,-86.85,0.10,"2024-12-04 18:09:10",0.00,0.00,0.00,0.00,0.00
"BMW_Series7_Pawn_C_0",1980.42,3785.52,-459.45,0.16,-86.83,0.11,"2024-12-04 18:09:10",0.00,0.00,0.00,0.00,0.00
"BMW_Series7_Pawn_C_0",1980.51,3785.50,-459.44,0.17,-86.80,0.14,"2024-12-04 18:09:10",0.00,0.00,0.00,0.00,0.00
"BMW_Series7_Pawn_C_0",1980.54,3784.76,-459.44,0.17,-86.82,0.17,"2024-12-04 18:09:10",0.00,0.00,0.00,0.00,0.00
"BMW_Series7_Pawn_C_0",1980.50,3784.10,-459.44,0.18,-86.85,0.18,"2024-12-04 18:09:10",0.00,0.00,0.00,0.00,0.00
"BMW_Series7_Pawn_C_0",1980.29,3782.17,-459.45,0.18,-86.97,0.22,"2024-12-04 18:09:10",0.00,0.00,0.00,0.00,0.00
"BMW_Series7_Pawn_C_0",1980.11,3780.97,-459.45,0.18,-87.07,0.24,"2024-12-04 18:09:10",0.00,0.00,0.00,0.00,0.00
"BMW_Series7_Pawn_C_0",1979.56,3777.70,-459.45,0.17,-87.33,0.27,"2024-12-04 18:09:10",0.00,0.00,0.00,0.00,0.00
"BMW_Series7_Pawn_C_0",1979.23,3775.97,-459.45,0.16,-87.48,0.27,"2024-12-04 18:09:10",0.00,0.00,0.00,0.00,0.00
"BMW_Series7_Pawn_C_0",1978.39,3771.98,-459.45,0.14,-87.83,0.28,"2024-12-04 18:09:10",0.00,0.00,0.00,0.00,0.00
"BMW_Series7_Pawn_C_0",1977.35,3767.39,-459.46,0.12,-88.25,0.28,"2024-12-04 18:09:10",0.00,0.00,0.00,0.00,0.00
"BMW_Series7_Pawn_C_0",1976.71,3764.72,-459.46,0.10,-88.50,0.27,"2024-12-04 18:09:10",0.00,0.00,0.00,0.00,0.00
"BMW_Series7_Pawn_C_0",1975.58,3758.89,-459.48,0.08,-88.92,0.24,"2024-12-04 18:09:10",0.00,0.00,0.00,0.00,0.00
"BMW_Series7_Pawn_C_0",1975.15,3755.73,-459.49,0.08,-89.07,0.21,"2024-12-04 18:09:10",0.00,0.00,0.00,0.00,0.00
"BMW_Series7_Pawn_C_0",1974.51,3748.10,-459.53,0.06,-89.29,0.13,"2024-12-04 18:09:10",0.00,0.00,0.00,0.00,0.00
"BMW_Series7_Pawn_C_0",1974.34,3743.95,-459.55,0.06,-89.35,0.09,"2024-12-04 18:09:10",0.00,0.00,0.00,0.00,0.00
"BMW_Series7_Pawn_C_0",1974.21,3735.33,-459.59,0.03,-89.40,0.02,"2024-12-04 18:09:10",0.00,0.00,0.00,0.00,0.00
"BMW_Series7_Pawn_C_0",1974.21,3731.07,-459.62,0.02,-89.40,0.00,"2024-12-04 18:09:11",0.00,0.00,0.00,0.00,0.00
"BMW_Series7_Pawn_C_0",1974.26,3721.51,-459.68,-0.01,-89.41,0.00,"2024-12-04 18:09:11",0.00,0.00,0.00,0.00,0.00
"BMW_Series7_Pawn_C_0",1974.32,3711.18,-459.75,-0.03,-89.41,0.04,"2024-12-04 18:09:11",0.00,0.00,0.00,0.00,0.00
"BMW_Series7_Pawn_C_0",1974.35,3705.97,-459.79,-0.05,-89.41,0.06,"2024-12-04 18:09:11",0.00,0.00,0.00,0.00,0.00
"BMW_Series7_Pawn_C_0",1974.42,3694.60,-459.87,-0.09,-89.41,0.12,"2024-12-04 18:09:11",0.00,0.00,0.00,0.00,0.00
"BMW_Series7_Pawn_C_0",1974.47,3688.51,-459.91,-0.11,-89.42,0.15,"2024-12-04 18:09:11",0.00,0.00,0.00,0.00,0.00
"BMW_Series7_Pawn_C_0",1974.58,3674.92,-459.98,-0.16,-89.42,0.21,"2024-12-04 18:09:11",0.00,0.00,0.00,0.00,0.00
"BMW_Series7_Pawn_C_0",1974.71,3661.20,-460.05,-0.21,-89.43,0.25,"2024-12-04 18:09:11",0.00,0.00,0.00,0.00,0.00
"BMW_Series7_Pawn_C_0",1974.78,3654.10,-460.09,-0.24,-89.43,0.26,"2024-12-04 18:09:11",0.00,0.00,0.00,0.00,0.00
"BMW_Series7_Pawn_C_0",1974.93,3639.10,-460.17,-0.29,-89.44,0.28,"2024-12-04 18:09:11",0.00,0.00,0.00,0.00,0.00
"BMW_Series7_Pawn_C_0",1975.02,3630.70,-460.22,-0.33,-89.44,0.28,"2024-12-04 18:09:11",0.00,0.00,0.00,0.00,0.00
"BMW_Series7_Pawn_C_0",1975.19,3614.41,-460.33,-0.39,-89.44,0.28,"2024-12-04 18:09:11",0.00,0.00,0.00,0.00,0.00
"BMW_Series7_Pawn_C_0",1975.38,3597.26,-460.47,-0.44,-89.45,0.27,"2024-12-04 18:09:11",0.00,0.00,0.00,0.00,0.00
"BMW_Series7_Pawn_C_0",1975.47,3588.40,-460.56,-0.47,-89.45,0.27,"2024-12-04 18:09:11",0.00,0.00,0.00,0.00,0.00
"BMW_Series7_Pawn_C_0",1975.66,3570.22,-460.75,-0.53,-89.46,0.26,"2024-12-04 18:09:11",0.00,0.00,0.00,0.00,0.00
"BMW_Series7_Pawn_C_0",1975.75,3559.97,-460.86,-0.56,-89.47,0.25,"2024-12-04 18:09:11",0.00,0.00,0.00,0.00,0.00
"BMW_Series7_Pawn_C_0",1975.84,3539.69,-461.10,-0.61,-89.53,0.25,"2024-12-04 18:09:11",0.00,0.00,0.00,0.00,0.00
"BMW_Series7_Pawn_C_0",1975.80,3529.61,-461.22,-0.63,-89.58,0.25,"2024-12-04 18:09:11",0.00,0.00,0.00,0.00,0.00
"BMW_Series7_Pawn_C_0",1975.49,3508.29,-461.49,-0.68,-89.77,0.28,"2024-12-04 18:09:11",0.00,0.00,0.00,0.00,0.00
"BMW_Series7_Pawn_C_0",1975.22,3486.45,-461.81,-0.72,-89.90,0.28,"2024-12-04 18:09:11",0.00,0.00,0.00,0.00,0.00
"BMW_Series7_Pawn_C_0",1975.18,3474.83,-461.99,-0.73,-89.92,0.26,"2024-12-04 18:09:11",0.00,0.00,0.00,0.00,0.00
"BMW_Series7_Pawn_C_0",1975.19,3450.59,-462.42,-0.74,-89.93,0.22,"2024-12-04 18:09:11",0.00,0.00,0.00,0.00,0.00
"BMW_Series7_Pawn_C_0",1975.21,3438.90,-462.64,-0.75,-89.94,0.20,"2024-12-04 18:09:11",0.00,0.00,0.00,0.00,0.00
"BMW_Series7_Pawn_C_0",1975.26,3413.48,-463.14,-0.75,-89.94,0.18,"2024-12-04 18:09:11",0.00,0.00,0.00,0.00,0.00
"BMW_Series7_Pawn_C_0",1975.29,3387.52,-463.67,-0.74,-89.95,0.17,"2024-12-04 18:09:11",0.00,0.00,0.00,0.00,0.00
"BMW_Series7_Pawn_C_0",1975.31,3373.35,-463.95,-0.73,-89.95,0.16,"2024-12-04 18:09:11",0.00,0.00,0.00,0.00,0.00
"BMW_Series7_Pawn_C_0",1975.34,3344.88,-464.52,-0.72,-89.96,0.17,"2024-12-04 18:09:11",0.00,0.00,0.00,0.00,0.00
"BMW_Series7_Pawn_C_0",1975.35,3330.28,-464.81,-0.72,-89.97,0.17,"2024-12-04 18:09:11",0.00,0.00,0.00,0.00,0.00
"BMW_Series7_Pawn_C_0",1975.38,3299.61,-465.39,-0.71,-89.97,0.18,"2024-12-04 18:09:11",0.00,0.00,0.00,0.00,0.00
"BMW_Series7_Pawn_C_0",1975.41,3268.45,-465.97,-0.70,-89.98,0.18,"2024-12-04 18:09:11",0.00,0.00,0.00,0.00,0.00
"BMW_Series7_Pawn_C_0",1975.42,3252.85,-466.25,-0.69,-89.99,0.18,"2024-12-04 18:09:12",0.00,0.00,0.00,0.00,0.00
"BMW_Series7_Pawn_C_0",1975.45,3216.88,-466.90,-0.68,-90.00,0.16,"2024-12-04 18:09:12",0.00,0.00,0.00,0.00,0.00
"BMW_Series7_Pawn_C_0",1975.47,3199.98,-467.21,-0.68,-90.00,0.15,"2024-12-04 18:09:12",0.00,0.00,0.00,0.00,0.00
"BMW_Series7_Pawn_C_0",1975.50,3163.95,-467.86,-0.68,-90.01,0.13,"2024-12-04 18:09:12",0.00,0.00,0.00,0.00,0.00
"BMW_Series7_Pawn_C_0",1975.51,3126.82,-468.57,-0.68,-90.02,0.11,"2024-12-04 18:09:12",0.00,0.00,0.00,0.00,0.00
"BMW_Series7_Pawn_C_0",1975.50,3108.02,-468.96,-0.69,-90.03,0.09,"2024-12-04 18:09:12",0.00,0.00,0.00,0.00,0.00
"BMW_Series7_Pawn_C_0",1975.32,3070.10,-469.86,-0.73,-90.12,0.08,"2024-12-04 18:09:12",0.00,0.00,0.00,0.00,0.00
"BMW_Series7_Pawn_C_0",1974.73,3029.98,-470.92,-0.81,-90.33,0.10,"2024-12-04 18:09:12",0.00,0.00,0.00,0.00,0.00
"BMW_Series7_Pawn_C_0",1974.22,3010.13,-471.45,-0.84,-90.49,0.13,"2024-12-04 18:09:12",0.00,0.00,0.00,0.00,0.00
"BMW_Series7_Pawn_C_0",1973.33,2968.57,-472.46,-0.89,-90.69,0.14,"2024-12-04 18:09:12",0.00,0.00,0.00,0.00,0.00
"BMW_Series7_Pawn_C_0",1972.73,2926.62,-473.13,-0.83,-90.73,0.09,"2024-12-04 18:09:12",0.00,0.00,0.00,0.00,0.00
"BMW_Series7_Pawn_C_0",1972.44,2903.75,-473.30,-0.75,-90.74,0.06,"2024-12-04 18:09:12",0.00,0.00,0.00,0.00,0.00
"BMW_Series7_Pawn_C_0",1971.90,2857.66,-473.28,-0.50,-90.75,-0.03,"2024-12-04 18:09:12",0.00,0.00,0.00,0.00,0.00
"BMW_Series7_Pawn_C_0",1971.37,2809.51,-472.86,-0.14,-90.77,-0.19,"2024-12-04 18:09:12",0.00,0.00,0.00,0.00,0.00
"BMW_Series7_Pawn_C_0",1971.12,2785.66,-472.62,0.08,-90.77,-0.29,"2024-12-04 18:09:12",0.00,0.00,0.00,0.00,0.00
"BMW_Series7_Pawn_C_0",1970.64,2737.23,-472.19,0.58,-90.78,-0.54,"2024-12-04 18:09:12",0.00,0.00,0.00,0.00,0.00
"BMW_Series7_Pawn_C_0",1970.08,2686.75,-472.01,1.08,-90.79,-0.76,"2024-12-04 18:09:12",0.00,0.00,0.00,0.00,0.00
"BMW_Series7_Pawn_C_0",1969.72,2657.18,-472.01,1.33,-90.80,-0.85,"2024-12-04 18:09:12",0.00,0.00,0.00,0.00,0.00
"BMW_Series7_Pawn_C_0",1969.00,2601.68,-472.03,1.61,-90.82,-0.97,"2024-12-04 18:09:12",0.00,0.00,0.00,0.00,0.00
"BMW_Series7_Pawn_C_0",1968.61,2572.98,-471.99,1.66,-90.83,-1.00,"2024-12-04 18:09:12",0.00,0.00,0.00,0.00,0.00
"BMW_Series7_Pawn_C_0",1967.83,2516.00,-471.80,1.55,-90.84,-1.05,"2024-12-04 18:09:12",0.00,0.00,0.00,0.00,0.00
"BMW_Series7_Pawn_C_0",1967.47,2488.83,-471.69,1.43,-90.84,-1.10,"2024-12-04 18:09:12",0.00,0.00,0.00,0.00,0.00
"BMW_Series7_Pawn_C_0",1966.72,2427.89,-471.37,1.03,-90.84,-1.29,"2024-12-04 18:09:12",0.00,0.00,0.00,0.00,0.00
"BMW_Series7_Pawn_C_0",1965.97,2370.02,-471.21,0.57,-90.84,-1.48,"2024-12-04 18:09:12",0.00,0.00,0.00,0.00,0.00
"BMW_Series7_Pawn_C_0",1965.58,2340.96,-471.23,0.32,-90.83,-1.55,"2024-12-04 18:09:12",0.00,0.00,0.00,0.00,0.00
"BMW_Series7_Pawn_C_0",1964.74,2282.17,-471.51,-0.16,-90.82,-1.65,"2024-12-04 18:09:12",0.00,0.00,0.00,0.00,0.00
"BMW_Series7_Pawn_C_0",1963.91,2225.30,-472.11,-0.58,-90.80,-1.70,"2024-12-04 18:09:12",0.00,0.00,0.00,0.00,0.00
"BMW_Series7_Pawn_C_0",1963.47,2196.31,-472.52,-0.75,-90.79,-1.70,"2024-12-04 18:09:12",0.00,0.00,0.00,0.00,0.00
"BMW_Series7_Pawn_C_0",1962.53,2133.78,-473.57,-0.99,-90.78,-1.69,"2024-12-04 18:09:12",0.00,0.00,0.00,0.00,0.00
"BMW_Series7_Pawn_C_0",1962.11,2105.99,-474.08,-1.04,-90.78,-1.68,"2024-12-04 18:09:12",0.00,0.00,0.00,0.00,0.00
"BMW_Series7_Pawn_C_0",1961.26,2049.05,-475.11,-1.03,-90.78,-1.65,"2024-12-04 18:09:13",0.00,0.00,0.00,0.00,0.00
"BMW_Series7_Pawn_C_0",1960.39,1990.67,-476.07,-0.91,-90.78,-1.62,"2024-12-04 18:09:13",0.00,0.00,0.00,0.00,0.00
"BMW_Series7_Pawn_C_0",1959.98,1962.93,-476.48,-0.83,-90.79,-1.61,"2024-12-04 18:09:13",0.00,0.00,0.00,0.00,0.00
"BMW_Series7_Pawn_C_0",1959.08,1902.21,-477.21,-0.64,-90.79,-1.59,"2024-12-04 18:09:13",0.00,0.00,0.00,0.00,0.00
"BMW_Series7_Pawn_C_0",1958.22,1844.80,-477.72,-0.48,-90.79,-1.58,"2024-12-04 18:09:13",0.00,0.00,0.00,0.00,0.00
"BMW_Series7_Pawn_C_0",1957.80,1816.33,-477.91,-0.42,-90.79,-1.58,"2024-12-04 18:09:13",0.00,0.00,0.00,0.00,0.00
"BMW_Series7_Pawn_C_0",1956.92,1756.44,-478.19,-0.32,-90.79,-1.57,"2024-12-04 18:09:13",0.00,0.00,0.00,0.00,0.00
"BMW_Series7_Pawn_C_0",1956.10,1701.54,-478.38,-0.28,-90.79,-1.57,"2024-12-04 18:09:13",0.00,0.00,0.00,0.00,0.00
"BMW_Series7_Pawn_C_0",1955.61,1671.13,-478.47,-0.28,-90.80,-1.57,"2024-12-04 18:09:13",0.00,0.00,0.00,0.00,0.00
"BMW_Series7_Pawn_C_0",1954.65,1616.09,-478.67,-0.31,-90.85,-1.56,"2024-12-04 18:09:13",0.00,0.00,0.00,0.00,0.00
"BMW_Series7_Pawn_C_0",1953.77,1561.69,-478.95,-0.36,-90.85,-1.55,"2024-12-04 18:09:13",0.00,0.00,0.00,0.00,0.00
"BMW_Series7_Pawn_C_0",1953.35,1535.33,-479.12,-0.40,-90.85,-1.55,"2024-12-04 18:09:13",0.00,0.00,0.00,0.00,0.00
"BMW_Series7_Pawn_C_0",1952.51,1482.12,-479.54,-0.47,-90.84,-1.56,"2024-12-04 18:09:13",0.00,0.00,0.00,0.00,0.00
"BMW_Series7_Pawn_C_0",1951.63,1425.49,-480.10,-0.53,-90.84,-1.56,"2024-12-04 18:09:13",0.00,0.00,0.00,0.00,0.00
"BMW_Series7_Pawn_C_0",1951.20,1397.63,-480.40,-0.56,-90.83,-1.57,"2024-12-04 18:09:13",0.00,0.00,0.00,0.00,0.00
"BMW_Series7_Pawn_C_0",1950.37,1344.08,-481.02,-0.60,-90.83,-1.57,"2024-12-04 18:09:13",0.00,0.00,0.00,0.00,0.00
"BMW_Series7_Pawn_C_0",1949.87,1311.90,-481.40,-0.60,-90.83,-1.58,"2024-12-04 18:09:13",0.00,0.00,0.00,0.00,0.00
"BMW_Series7_Pawn_C_0",1949.01,1255.87,-482.05,-0.58,-90.83,-1.58,"2024-12-04 18:09:13",0.00,0.00,0.00,0.00,0.00
"BMW_Series7_Pawn_C_0",1948.17,1201.37,-482.65,-0.53,-90.83,-1.59,"2024-12-04 18:09:13",0.00,0.00,0.00,0.00,0.00
"BMW_Series7_Pawn_C_0",1947.76,1174.44,-482.93,-0.49,-90.83,-1.59,"2024-12-04 18:09:13",0.00,0.00,0.00,0.00,0.00
"BMW_Series7_Pawn_C_0",1946.87,1116.86,-483.48,-0.40,-90.84,-1.59,"2024-12-04 18:09:13",0.00,0.00,0.00,0.00,0.00
"BMW_Series7_Pawn_C_0",1946.04,1060.49,-483.96,-0.31,-90.83,-1.60,"2024-12-04 18:09:13",0.00,0.00,0.00,0.00,0.00
"BMW_Series7_Pawn_C_0",1945.68,1031.94,-484.19,-0.28,-90.79,-1.60,"2024-12-04 18:09:13",0.00,0.00,0.00,0.00,0.00
"BMW_Series7_Pawn_C_0",1945.42,1005.28,-484.39,-0.26,-90.74,-1.61,"2024-12-04 18:09:13",0.00,0.00,0.00,0.00,0.00
"BMW_Series7_Pawn_C_0",1945.11,930.79,-484.85,-0.26,-90.46,-1.67,"2024-12-04 18:09:13",0.00,0.00,0.00,0.00,0.00
"BMW_Series7_Pawn_C_0",1944.92,900.13,-485.05,-0.28,-90.42,-1.67,"2024-12-04 18:09:13",0.00,0.00,0.00,0.00,0.00
"BMW_Series7_Pawn_C_0",1944.50,846.09,-485.45,-0.33,-90.40,-1.66,"2024-12-04 18:09:13",0.00,0.00,0.00,0.00,0.00
"BMW_Series7_Pawn_C_0",1944.07,792.52,-485.90,-0.40,-90.39,-1.63,"2024-12-04 18:09:13",0.00,0.00,0.00,0.00,0.00
"BMW_Series7_Pawn_C_0",1943.83,762.22,-486.19,-0.44,-90.38,-1.62,"2024-12-04 18:09:13",0.00,0.00,0.00,0.00,0.00
"BMW_Series7_Pawn_C_0",1943.38,705.82,-486.75,-0.51,-90.38,-1.59,"2024-12-04 18:09:13",0.00,0.00,0.00,0.00,0.00
"BMW_Series7_Pawn_C_0",1942.99,654.84,-487.30,-0.55,-90.37,-1.58,"2024-12-04 18:09:14",0.00,0.00,0.00,0.00,0.00
"BMW_Series7_Pawn_C_0",1942.79,628.61,-487.59,-0.57,-90.37,-1.57,"2024-12-04 18:09:14",0.00,0.00,0.00,0.00,0.00
"BMW_Series7_Pawn_C_0",1942.39,576.08,-488.18,-0.60,-90.37,-1.56,"2024-12-04 18:09:14",0.00,0.00,0.00,0.00,0.00
"BMW_Series7_Pawn_C_0",1942.03,519.59,-488.79,-0.60,-90.35,-1.57,"2024-12-04 18:09:14",0.00,0.00,0.00,0.00,0.00
"BMW_Series7_Pawn_C_0",1941.92,494.39,-489.06,-0.60,-90.32,-1.58,"2024-12-04 18:09:14",0.00,0.00,0.00,0.00,0.00
"BMW_Series7_Pawn_C_0",1941.99,442.40,-489.58,-0.58,-90.16,-1.63,"2024-12-04 18:09:14",0.00,0.00,0.00,0.00,0.00
"BMW_Series7_Pawn_C_0",1942.68,389.10,-490.07,-0.56,-89.82,-1.72,"2024-12-04 18:09:14",0.00,0.00,0.00,0.00,0.00
"BMW_Series7_Pawn_C_0",1943.10,362.77,-490.29,-0.54,-89.67,-1.76,"2024-12-04 18:09:14",0.00,0.00,0.00,0.00,0.00
"BMW_Series7_Pawn_C_0",1943.66,310.29,-490.74,-0.52,-89.56,-1.77,"2024-12-04 18:09:14",0.00,0.00,0.00,0.00,0.00
"BMW_Series7_Pawn_C_0",1944.03,258.14,-491.18,-0.50,-89.54,-1.73,"2024-12-04 18:09:14",0.00,0.00,0.00,0.00,0.00
"BMW_Series7_Pawn_C_0",1944.20,233.08,-491.39,-0.49,-89.54,-1.71,"2024-12-04 18:09:14",0.00,0.00,0.00,0.00,0.00
"BMW_Series7_Pawn_C_0",1944.52,182.67,-491.82,-0.48,-89.54,-1.65,"2024-12-04 18:09:14",0.00,0.00,0.00,0.00,0.00
"BMW_Series7_Pawn_C_0",1944.86,131.83,-492.25,-0.48,-89.53,-1.60,"2024-12-04 18:09:14",0.00,0.00,0.00,0.00,0.00
"BMW_Series7_Pawn_C_0",1945.20,80.98,-492.69,-0.48,-89.53,-1.57,"2024-12-04 18:09:14",0.00,0.00,0.00,0.00,0.00
"BMW_Series7_Pawn_C_0",1945.39,53.56,-492.93,-0.48,-89.53,-1.56,"2024-12-04 18:09:14",0.00,0.00,0.00,0.00,0.00
"BMW_Series7_Pawn_C_0",1945.64,2.51,-493.39,-0.49,-89.58,-1.54,"2024-12-04 18:09:14",0.00,0.00,0.00,0.00,0.00
"BMW_Series7_Pawn_C_0",1945.65,-25.53,-493.65,-0.49,-89.64,-1.52,"2024-12-04 18:09:14",0.00,0.00,0.00,0.00,0.00
"BMW_Series7_Pawn_C_0",1945.31,-73.97,-494.13,-0.51,-89.87,-1.46,"2024-12-04 18:09:14",0.00,0.00,0.00,0.00,0.00
"BMW_Series7_Pawn_C_0",1944.20,-123.32,-494.65,-0.53,-90.31,-1.37,"2024-12-04 18:09:14",0.00,0.00,0.00,0.00,0.00
"BMW_Series7_Pawn_C_0",1942.04,-171.30,-495.20,-0.56,-91.01,-1.22,"2024-12-04 18:09:14",0.00,0.00,0.00,0.00,0.00
"BMW_Series7_Pawn_C_0",1940.41,-195.66,-495.49,-0.58,-91.49,-1.12,"2024-12-04 18:09:14",0.00,0.00,0.00,0.00,0.00
"BMW_Series7_Pawn_C_0",1935.84,-245.16,-496.11,-0.62,-92.70,-0.88,"2024-12-04 18:09:14",0.00,0.00,0.00,0.00,0.00
"BMW_Series7_Pawn_C_0",1929.72,-293.47,-496.75,-0.67,-94.11,-0.65,"2024-12-04 18:09:14",0.00,0.00,0.00,0.00,0.00
"BMW_Series7_Pawn_C_0",1926.24,-316.35,-497.06,-0.69,-94.85,-0.54,"2024-12-04 18:09:14",0.00,0.00,0.00,0.00,0.00
"BMW_Series7_Pawn_C_0",1917.47,-365.30,-497.76,-0.73,-96.54,-0.36,"2024-12-04 18:09:14",0.00,0.00,0.00,0.00,0.00
"BMW_Series7_Pawn_C_0",1908.02,-414.66,-498.45,-0.73,-97.92,-0.35,"2024-12-04 18:09:14",0.00,0.00,0.00,0.00,0.00
"BMW_Series7_Pawn_C_0",1903.13,-441.89,-498.82,-0.72,-98.37,-0.46,"2024-12-04 18:09:14",0.00,0.00,0.00,0.00,0.00
"BMW_Series7_Pawn_C_0",1895.18,-489.26,-499.45,-0.68,-98.77,-0.79,"2024-12-04 18:09:14",0.00,0.00,0.00,0.00,0.00
"BMW_Series7_Pawn_C_0",1891.37,-513.26,-499.77,-0.66,-98.83,-0.98,"2024-12-04 18:09:14",0.00,0.00,0.00,0.00,0.00
"BMW_Series7_Pawn_C_0",1884.16,-559.94,-500.40,-0.64,-98.86,-1.35,"2024-12-04 18:09:14",0.00,0.00,0.00,0.00,0.00
"BMW_Series7_Pawn_C_0",1876.67,-608.44,-501.08,-0.64,-98.86,-1.63,"2024-12-04 18:09:15",0.00,0.00,0.00,0.00,0.00
"BMW_Series7_Pawn_C_0",1869.31,-655.74,-501.77,-0.66,-98.85,-1.79,"2024-12-04 18:09:15",0.00,0.00,0.00,0.00,0.00
"BMW_Series7_Pawn_C_0",1865.50,-680.14,-502.12,-0.67,-98.85,-1.83,"2024-12-04 18:09:15",0.00,0.00,0.00,0.00,0.00
"BMW_Series7_Pawn_C_0",1858.26,-726.83,-502.80,-0.70,-98.80,-1.84,"2024-12-04 18:09:15",0.00,0.00,0.00,0.00,0.00
"BMW_Series7_Pawn_C_0",1851.19,-774.21,-503.49,-0.73,-98.65,-1.82,"2024-12-04 18:09:15",0.00,0.00,0.00,0.00,0.00
"BMW_Series7_Pawn_C_0",1848.00,-796.83,-503.81,-0.75,-98.53,-1.80,"2024-12-04 18:09:15",0.00,0.00,0.00,0.00,0.00
"BMW_Series7_Pawn_C_0",1841.84,-844.63,-504.45,-0.76,-98.10,-1.80,"2024-12-04 18:09:15",0.00,0.00,0.00,0.00,0.00
"BMW_Series7_Pawn_C_0",1836.82,-892.39,-505.06,-0.76,-97.40,-1.87,"2024-12-04 18:09:15",0.00,0.00,0.00,0.00,0.00
"BMW_Series7_Pawn_C_0",1834.98,-914.71,-505.33,-0.76,-96.95,-1.93,"2024-12-04 18:09:15",0.00,0.00,0.00,0.00,0.00
"BMW_Series7_Pawn_C_0",1832.21,-964.15,-505.89,-0.74,-95.71,-2.12,"2024-12-04 18:09:15",0.00,0.00,0.00,0.00,0.00
"BMW_Series7_Pawn_C_0",1831.26,-1007.82,-506.34,-0.71,-94.41,-2.32,"2024-12-04 18:09:15",0.00,0.00,0.00,0.00,0.00
"BMW_Series7_Pawn_C_0",1831.40,-1033.72,-506.60,-0.70,-93.55,-2.43,"2024-12-04 18:09:15",0.00,0.00,0.00,0.00,0.00
"BMW_Series7_Pawn_C_0",1832.67,-1075.92,-506.99,-0.66,-92.07,-2.60,"2024-12-04 18:09:15",0.00,0.00,0.00,0.00,0.00
"BMW_Series7_Pawn_C_0",1835.47,-1119.84,-507.37,-0.63,-90.41,-2.73,"2024-12-04 18:09:15",0.00,0.00,0.00,0.00,0.00
"BMW_Series7_Pawn_C_0",1839.77,-1163.69,-507.73,-0.59,-88.67,-2.81,"2024-12-04 18:09:15",0.00,0.00,0.00,0.00,0.00
"BMW_Series7_Pawn_C_0",1842.29,-1184.01,-507.88,-0.57,-87.83,-2.83,"2024-12-04 18:09:15",0.00,0.00,0.00,0.00,0.00
"BMW_Series7_Pawn_C_0",1849.08,-1229.85,-508.19,-0.53,-85.93,-2.82,"2024-12-04 18:09:15",0.00,0.00,0.00,0.00,0.00
"BMW_Series7_Pawn_C_0",1852.28,-1251.45,-508.34,-0.51,-85.25,-2.75,"2024-12-04 18:09:15",0.00,0.00,0.00,0.00,0.00
"BMW_Series7_Pawn_C_0",1858.28,-1296.34,-508.68,-0.47,-84.38,-2.44,"2024-12-04 18:09:15",0.00,0.00,0.00,0.00,0.00
"BMW_Series7_Pawn_C_0",1863.10,-1337.97,-509.01,-0.45,-84.07,-2.05,"2024-12-04 18:09:15",0.00,0.00,0.00,0.00,0.00
"BMW_Series7_Pawn_C_0",1867.41,-1379.21,-509.35,-0.43,-84.01,-1.67,"2024-12-04 18:09:15",0.00,0.00,0.00,0.00,0.00
"BMW_Series7_Pawn_C_0",1869.52,-1400.01,-509.52,-0.43,-84.01,-1.51,"2024-12-04 18:09:15",0.00,0.00,0.00,0.00,0.00
"BMW_Series7_Pawn_C_0",1873.63,-1441.70,-509.86,-0.42,-84.07,-1.28,"2024-12-04 18:09:15",0.00,0.00,0.00,0.00,0.00
"BMW_Series7_Pawn_C_0",1877.44,-1483.28,-510.19,-0.42,-84.24,-1.16,"2024-12-04 18:09:15",0.00,0.00,0.00,0.00,0.00
"BMW_Series7_Pawn_C_0",1879.27,-1505.37,-510.37,-0.42,-84.40,-1.12,"2024-12-04 18:09:15",0.00,0.00,0.00,0.00,0.00
